{
"type": "FeatureCollection",
"name": "corporation_pts.geojson",
"crs": { "type": "name", "properties": { "name": "urn:ogc:def:crs:EPSG::4269" } },
"features": [
{ "type": "Feature", "properties": { "corp_id": "1010", "corp_name": "Greater Clark County Schools", "typ": "School Corporation", "address": "2112 Utica-Sellersburg Rd, Jeffersonville, IN, 47130", "county": "Clark", "NAME": "Greater Clark County Schools" }, "geometry": { "type": "Point", "coordinates": [ -85.6803132, 38.3380759 ] } },
{ "type": "Feature", "properties": { "corp_id": "1125", "corp_name": "Clay Community Schools", "typ": "School Corporation", "address": "1013 S Forest Ave, Brazil, IN, 47834", "county": "Clay", "NAME": "Clay Community Schools" }, "geometry": { "type": "Point", "coordinates": [ -87.1258185, 39.5134146 ] } },
{ "type": "Feature", "properties": { "corp_id": "1150", "corp_name": "Clinton Central School Corporation", "typ": "School Corporation", "address": "Box 118, Michigantown, IN, 46057", "county": "Clinton", "NAME": "Clinton Central School Corporation" }, "geometry": { "type": "Point", "coordinates": [ -86.3782198, 40.2931784 ] } },
{ "type": "Feature", "properties": { "corp_id": "1160", "corp_name": "Clinton Prairie School Corporation", "typ": "School Corporation", "address": "2390 S CR 450 W, Frankfort, IN, 46041", "county": "Clinton", "NAME": "Clinton Prairie School Corporation" }, "geometry": { "type": "Point", "coordinates": [ -86.5920065, 40.2512842 ] } },
{ "type": "Feature", "properties": { "corp_id": "1170", "corp_name": "Community Schools of Frankfort", "typ": "School Corporation", "address": "2400 E Wabash Ave, Frankfort, IN, 46041", "county": "Clinton", "NAME": "Frankfort Community Schools" }, "geometry": { "type": "Point", "coordinates": [ -86.4815614, 40.279479599999988 ] } },
{ "type": "Feature", "properties": { "corp_id": "1180", "corp_name": "Rossville Consolidated School District", "typ": "School Corporation", "address": "PO Box 11, Rossville, IN, 46065", "county": "Clinton", "NAME": "Rossville Consolidated School District" }, "geometry": { "type": "Point", "coordinates": [ -86.5947239, 40.4169804 ] } },
{ "type": "Feature", "properties": { "corp_id": "1300", "corp_name": "Crawford County Community School Corporation", "typ": "School Corporation", "address": "5805 E Administration Rd, Marengo, IN, 47140", "county": "Crawford", "NAME": "Crawford County Community School Corporation" }, "geometry": { "type": "Point", "coordinates": [ -86.3524126, 38.3216566 ] } },
{ "type": "Feature", "properties": { "corp_id": "1315", "corp_name": "Barr-Reeve Community Schools Incorporated", "typ": "School Corporation", "address": "Box 97, Montgomery, IN, 47558", "county": "Daviess", "NAME": "Barr-Reeve Community School Corporation" }, "geometry": { "type": "Point", "coordinates": [ -87.0491666, 38.6682821 ] } },
{ "type": "Feature", "properties": { "corp_id": "1375", "corp_name": "North Daviess Community Schools", "typ": "School Corporation", "address": "5494 E SR 58, Elnora, IN, 47529", "county": "Daviess", "NAME": "North Daviess Community Schools" }, "geometry": { "type": "Point", "coordinates": [ -87.0620062, 38.8474234 ] } },
{ "type": "Feature", "properties": { "corp_id": "1405", "corp_name": "Washington Community Schools", "typ": "School Corporation", "address": "301 E South St, Washington, IN, 47501", "county": "Daviess", "NAME": "Washington Community School Corporation" }, "geometry": { "type": "Point", "coordinates": [ -87.172009, 38.6558995 ] } },
{ "type": "Feature", "properties": { "corp_id": "1560", "corp_name": "Sunman-Dearborn Community School Corporation", "typ": "School Corporation", "address": "1 Trojan Place Ste B, St Leon, IN, 47012", "county": "Dearborn", "NAME": "Sunman-Dearborn Community School Corporation" }, "geometry": { "type": "Point", "coordinates": [ -84.9741916, 39.2792271 ] } },
{ "type": "Feature", "properties": { "corp_id": "1600", "corp_name": "South Dearborn Community School Corporation", "typ": "School Corporation", "address": "6109 Squire Pl, Aurora, IN, 47001", "county": "Dearborn", "NAME": "South Dearborn Community School Corporation" }, "geometry": { "type": "Point", "coordinates": [ -84.9325662, 39.0631857 ] } },
{ "type": "Feature", "properties": { "corp_id": "1620", "corp_name": "Lawrenceburg Community School Corporation", "typ": "School Corporation", "address": "300 Tiger Blvd, Lawrenceburg, IN, 47025", "county": "Dearborn", "NAME": "Lawrenceburg Community School Corporation" }, "geometry": { "type": "Point", "coordinates": [ -84.8523647, 39.1005011 ] } },
{ "type": "Feature", "properties": { "corp_id": "1655", "corp_name": "Decatur County Community Schools", "typ": "School Corporation", "address": "2020 N Montgomery Rd, Greensburg, IN, 47240", "county": "Decatur", "NAME": "Greensburg Community Schools" }, "geometry": { "type": "Point", "coordinates": [ -85.4695443, 39.3576501 ] } },
{ "type": "Feature", "properties": { "corp_id": "1730", "corp_name": "Greensburg Community Schools", "typ": "School Corporation", "address": "1312 W Westridge Pky, Greensburg, IN, 47240", "county": "Decatur", "NAME": "Greensburg Community Schools" }, "geometry": { "type": "Point", "coordinates": [ -85.5025371, 39.3529482 ] } },
{ "type": "Feature", "properties": { "corp_id": "1805", "corp_name": "DeKalb County Eastern Community School District", "typ": "School Corporation", "address": "300 E Washington St, Butler, IN, 46721", "county": "Dekalb", "NAME": "DeKalb County Eastern Community School District" }, "geometry": { "type": "Point", "coordinates": [ -84.8683436, 41.4313289 ] } },
{ "type": "Feature", "properties": { "corp_id": "1820", "corp_name": "Garrett-Keyser-Butler Community School Corporation", "typ": "School Corporation", "address": "801 E Houston St, Garrett, IN, 46738", "county": "Dekalb", "NAME": "Garrett-Keyser-Butler Community Schools" }, "geometry": { "type": "Point", "coordinates": [ -85.1266549, 41.3473204 ] } },
{ "type": "Feature", "properties": { "corp_id": "1835", "corp_name": "DeKalb County Central United School District", "typ": "School Corporation", "address": "3326 CR 427, Waterloo, IN, 46793", "county": "Dekalb", "NAME": "DeKalb County Central United School District" }, "geometry": { "type": "Point", "coordinates": [ -85.0649071, 41.4556306 ] } },
{ "type": "Feature", "properties": { "corp_id": "1875", "corp_name": "Delaware Community School Corporation", "typ": "School Corporation", "address": "9750 N CR 200 E, Muncie, IN, 47303", "county": "Delaware", "NAME": "Muncie Community Schools" }, "geometry": { "type": "Point", "coordinates": [ -85.3863599, 40.1933767 ] } },
{ "type": "Feature", "properties": { "corp_id": "1885", "corp_name": "Wes-Del Community Schools", "typ": "School Corporation", "address": "10290 N CR 600 W, Gaston, IN, 47342", "county": "Delaware", "NAME": "Wes-Del Community Schools" }, "geometry": { "type": "Point", "coordinates": [ -85.4994192, 40.2827958 ] } },
{ "type": "Feature", "properties": { "corp_id": "1895", "corp_name": "Liberty-Perry Community School Corporation", "typ": "School Corporation", "address": "Box 337, Selma, IN, 47383", "county": "Delaware", "NAME": "Liberty-Perry Community School Corporation" }, "geometry": { "type": "Point", "coordinates": [ -85.2929384, 40.1521403 ] } },
{ "type": "Feature", "properties": { "corp_id": "1900", "corp_name": "Cowan Community School Corporation", "typ": "School Corporation", "address": "9401 S Nottingham, Muncie, IN, 47302", "county": "Delaware", "NAME": "Cowan Community School Corporation" }, "geometry": { "type": "Point", "coordinates": [ -85.3931312, 40.1080198 ] } },
{ "type": "Feature", "properties": { "corp_id": "1910", "corp_name": "Yorktown Community Schools", "typ": "School Corporation", "address": "2311 S Broadway St, Yorktown, IN, 47396", "county": "Delaware", "NAME": "Yorktown Community Schools" }, "geometry": { "type": "Point", "coordinates": [ -85.4932738, 40.1719843 ] } },
{ "type": "Feature", "properties": { "corp_id": "1940", "corp_name": "Daleville Community Schools", "typ": "School Corporation", "address": "14300 W 2nd St, Daleville, IN, 47334", "county": "Delaware", "NAME": "Daleville Community Schools" }, "geometry": { "type": "Point", "coordinates": [ -85.5551793, 40.119923 ] } },
{ "type": "Feature", "properties": { "corp_id": "1970", "corp_name": "Muncie Community Schools", "typ": "School Corporation", "address": "4301 S. Cowan Road, Muncie, IN, 47303", "county": "Delaware", "NAME": "Muncie Community Schools" }, "geometry": { "type": "Point", "coordinates": [ -85.4057523, 40.1545906 ] } },
{ "type": "Feature", "properties": { "corp_id": "2040", "corp_name": "Northeast Dubois County School Corporation", "typ": "School Corporation", "address": "5379 E Main St Box 158, Dubois, IN, 47527", "county": "Dubois", "NAME": "Northeast Dubois County School Corporation" }, "geometry": { "type": "Point", "coordinates": [ -86.805904, 38.445571 ] } },
{ "type": "Feature", "properties": { "corp_id": "2100", "corp_name": "Southeast Dubois County School Corporation", "typ": "School Corporation", "address": "432 E 15th St, Ferdinand, IN, 47532", "county": "Dubois", "NAME": "Southeast Dubois County School Corporation" }, "geometry": { "type": "Point", "coordinates": [ -86.8573482, 38.2289015 ] } },
{ "type": "Feature", "properties": { "corp_id": "2110", "corp_name": "Southwest Dubois County School Corporation", "typ": "School Corporation", "address": "105 West Sunset Drive, Huntingburg, IN, 47542", "county": "Dubois", "NAME": "Southwest Dubois County School Corporation" }, "geometry": { "type": "Point", "coordinates": [ -86.9611558, 38.2767247 ] } },
{ "type": "Feature", "properties": { "corp_id": "2120", "corp_name": "Greater Jasper Consolidated Schools", "typ": "School Corporation", "address": "1520 St Charles St Suite 1, Jasper, IN, 47546", "county": "Dubois", "NAME": "Greater Jasper Consolidated Schools" }, "geometry": { "type": "Point", "coordinates": [ -86.9514748, 38.4006147 ] } },
{ "type": "Feature", "properties": { "corp_id": "2155", "corp_name": "Fairfield Community Schools", "typ": "School Corporation", "address": "67240 CR 31, Goshen, IN, 46528", "county": "Elkhart", "NAME": "Fairfield Community Schools" }, "geometry": { "type": "Point", "coordinates": [ -85.769062, 41.5197842 ] } },
{ "type": "Feature", "properties": { "corp_id": "2260", "corp_name": "Baugo Community Schools", "typ": "School Corporation", "address": "29125 CR 22 W, Elkhart, IN, 46517", "county": "Elkhart", "NAME": "Baugo Community Schools" }, "geometry": { "type": "Point", "coordinates": [ -86.024788199999989, 41.6358153 ] } },
{ "type": "Feature", "properties": { "corp_id": "2270", "corp_name": "Concord Community Schools", "typ": "School Corporation", "address": "59040 Minuteman Way, Elkhart, IN, 46517", "county": "Elkhart", "NAME": "Concord Community Schools" }, "geometry": { "type": "Point", "coordinates": [ -85.9277509, 41.6374023 ] } },
{ "type": "Feature", "properties": { "corp_id": "2275", "corp_name": "Middlebury Community Schools", "typ": "School Corporation", "address": "56853 Northridge Dr, Middlebury, IN, 46540", "county": "Elkhart", "NAME": "Middlebury Community Schools" }, "geometry": { "type": "Point", "coordinates": [ -85.7259625, 41.6704882 ] } },
{ "type": "Feature", "properties": { "corp_id": "2285", "corp_name": "Wa-Nee Community Schools", "typ": "School Corporation", "address": "1300 N Main St, Nappanee, IN, 46550", "county": "Elkhart", "NAME": "Wa-Nee Community Schools" }, "geometry": { "type": "Point", "coordinates": [ -86.0022306, 41.4532945 ] } },
{ "type": "Feature", "properties": { "corp_id": "2305", "corp_name": "Elkhart Community Schools", "typ": "School Corporation", "address": "2720 California Rd, Elkhart, IN, 46514", "county": "Elkhart", "NAME": "Elkhart Community Schools" }, "geometry": { "type": "Point", "coordinates": [ -86.0165091, 41.6960755 ] } },
{ "type": "Feature", "properties": { "corp_id": "2315", "corp_name": "Goshen Community Schools", "typ": "School Corporation", "address": "613 E Purl St, Goshen, IN, 46526", "county": "Elkhart", "NAME": "Goshen Community Schools" }, "geometry": { "type": "Point", "coordinates": [ -85.8255055, 41.5800861 ] } },
{ "type": "Feature", "properties": { "corp_id": "2395", "corp_name": "Fayette County School Corporation", "typ": "School Corporation", "address": "1401 Spartan Drive, Connersville, IN, 47331", "county": "Fayette", "NAME": "Fayette County School Corporation" }, "geometry": { "type": "Point", "coordinates": [ -85.1654536, 39.631994 ] } },
{ "type": "Feature", "properties": { "corp_id": "2400", "corp_name": "New Albany-Floyd County Consolidated School", "typ": "School Corporation", "address": "2813 Grant Line PO Box 1087, New Albany, IN, 47150", "county": "Floyd", "NAME": "New Albany-Floyd County Consolidated Schools" }, "geometry": { "type": "Point", "coordinates": [ -85.8215136, 38.3176595 ] } },
{ "type": "Feature", "properties": { "corp_id": "2435", "corp_name": "Attica Consolidated School Corporation", "typ": "School Corporation", "address": "205 E Sycamore St, Attica, IN, 47918", "county": "Fountain", "NAME": "Attica Consolidated School Corporation" }, "geometry": { "type": "Point", "coordinates": [ -87.2538932, 40.2797504 ] } },
{ "type": "Feature", "properties": { "corp_id": "2440", "corp_name": "Covington Community School Corporation", "typ": "School Corporation", "address": "601 Market St, Covington, IN, 47932", "county": "Fountain", "NAME": "Covington Community School Corporation" }, "geometry": { "type": "Point", "coordinates": [ -87.394885699999989, 40.1442618 ] } },
{ "type": "Feature", "properties": { "corp_id": "2455", "corp_name": "Southeast Fountain School Corporation", "typ": "School Corporation", "address": "744 E US Hwy 136, Veedersburg, IN, 47987", "county": "Fountain", "NAME": "Southeast Fountain School Corporation" }, "geometry": { "type": "Point", "coordinates": [ -87.2260678, 40.1060057 ] } },
{ "type": "Feature", "properties": { "corp_id": "2475", "corp_name": "Franklin County Community School Corporation", "typ": "School Corporation", "address": "225 E 10th St, Brookville, IN, 47012", "county": "Franklin", "NAME": "Franklin County Community School Corporation" }, "geometry": { "type": "Point", "coordinates": [ -85.0101082, 39.4258273 ] } },
{ "type": "Feature", "properties": { "corp_id": "2645", "corp_name": "Rochester Community School Corporation", "typ": "School Corporation", "address": "690 Zebra Ln Box 108, Rochester, IN, 46975", "county": "Fulton", "NAME": "Rochester Community School Corporation" }, "geometry": { "type": "Point", "coordinates": [ -86.224814, 41.0555088 ] } },
{ "type": "Feature", "properties": { "corp_id": "2650", "corp_name": "Caston School Corporation", "typ": "School Corporation", "address": "9815 S State Rd 25, Rochester, IN, 46975", "county": "Fulton", "NAME": "Caston School Corporation" }, "geometry": { "type": "Point", "coordinates": [ -86.2822388, 40.9117014 ] } },
{ "type": "Feature", "properties": { "corp_id": "2725", "corp_name": "East Gibson School Corporation", "typ": "School Corporation", "address": "941 S. Franklin St., Oakland City, IN, 47660", "county": "Gibson", "NAME": "East Gibson School Corporation" }, "geometry": { "type": "Point", "coordinates": [ -87.3511626, 38.3301977 ] } },
{ "type": "Feature", "properties": { "corp_id": "2735", "corp_name": "North Gibson School Corporation", "typ": "School Corporation", "address": "1104 N Embree St, Princeton, IN, 47670", "county": "Gibson", "NAME": "North Gibson School Corporation" }, "geometry": { "type": "Point", "coordinates": [ -87.5797401, 38.3664824 ] } },
{ "type": "Feature", "properties": { "corp_id": "2765", "corp_name": "South Gibson School Corporation", "typ": "School Corporation", "address": "3321 W 800 S, Fort Branch, IN, 47648", "county": "Gibson", "NAME": "South Gibson School Corporation" }, "geometry": { "type": "Point", "coordinates": [ -87.7346618, 38.2379076 ] } },
{ "type": "Feature", "properties": { "corp_id": "2815", "corp_name": "Eastbrook Community School Corporation", "typ": "School Corporation", "address": "CR 560 S 900 E, Marion, IN, 46953", "county": "Grant", "NAME": "Eastbrook Community School Corporation" }, "geometry": { "type": "Point", "coordinates": [ -85.5047347, 40.5449593 ] } },
{ "type": "Feature", "properties": { "corp_id": "2825", "corp_name": "Madison-Grant United School Corporation", "typ": "School Corporation", "address": "11580 S/E 00 W, Fairmount, IN, 46928", "county": "Grant", "NAME": "Madison-Grant United School Corporation" }, "geometry": { "type": "Point", "coordinates": [ -85.6719567, 40.4219101 ] } },
{ "type": "Feature", "properties": { "corp_id": "2855", "corp_name": "Mississinewa Community School Corporation", "typ": "School Corporation", "address": "424 E S 'A' St, Gas City, IN, 46933", "county": "Grant", "NAME": "Mississinewa Community School Corporation" }, "geometry": { "type": "Point", "coordinates": [ -85.6080034, 40.4865732 ] } },
{ "type": "Feature", "properties": { "corp_id": "2865", "corp_name": "Marion Community Schools", "typ": "School Corporation", "address": "750 W 26th St, Marion, IN, 46953", "county": "Grant", "NAME": "Marion Community Schools" }, "geometry": { "type": "Point", "coordinates": [ -85.6686617, 40.5379222 ] } },
{ "type": "Feature", "properties": { "corp_id": "2920", "corp_name": "Bloomfield School District", "typ": "School Corporation", "address": "501 W Spring St., Bloomfield, IN, 47424", "county": "Greene", "NAME": "Bloomfield School District" }, "geometry": { "type": "Point", "coordinates": [ -86.9458888, 39.0253854 ] } },
{ "type": "Feature", "properties": { "corp_id": "2940", "corp_name": "Eastern Greene Schools", "typ": "School Corporation", "address": "1471 N SR 43, Bloomfield, IN, 47424", "county": "Greene", "NAME": "Eastern Greene County School District" }, "geometry": { "type": "Point", "coordinates": [ -86.7447151, 39.043309 ] } },
{ "type": "Feature", "properties": { "corp_id": "2950", "corp_name": "Linton-Stockton School Corporation", "typ": "School Corporation", "address": "109 I Street NE, Linton, IN, 47441", "county": "Greene", "NAME": "Linton-Stockton School Corporation" }, "geometry": { "type": "Point", "coordinates": [ -87.1647168, 39.0412944 ] } },
{ "type": "Feature", "properties": { "corp_id": "2960", "corp_name": "Metropolitan School District Shakamak Schools", "typ": "School Corporation", "address": "9233 Shakamak School Rd, Jasonville, IN, 47438", "county": "Greene", "NAME": "Shakamak Schools Metropolitan School District" }, "geometry": { "type": "Point", "coordinates": [ -87.2123124, 39.1595628 ] } },
{ "type": "Feature", "properties": { "corp_id": "2980", "corp_name": "White River Valley School District", "typ": "School Corporation", "address": "PO Box 1470, Switz City, IN, 47465", "county": "Greene", "NAME": "White River Valley School District" }, "geometry": { "type": "Point", "coordinates": [ -87.0224442, 38.9915292 ] } },
{ "type": "Feature", "properties": { "corp_id": "3005", "corp_name": "Hamilton Southeastern Schools", "typ": "School Corporation", "address": "13485 Cumberland Rd, Fishers, IN, 46038", "county": "Hamilton", "NAME": "Hamilton Southeastern Schools" }, "geometry": { "type": "Point", "coordinates": [ -85.9951648, 39.9847309 ] } },
{ "type": "Feature", "properties": { "corp_id": "3025", "corp_name": "Hamilton Heights School Corporation", "typ": "School Corporation", "address": "PO Box 469, Arcadia, IN, 46030", "county": "Hamilton", "NAME": "Hamilton Heights School Corporation" }, "geometry": { "type": "Point", "coordinates": [ -85.9917437, 40.178387699999988 ] } },
{ "type": "Feature", "properties": { "corp_id": "3030", "corp_name": "Westfield-Washington Schools", "typ": "School Corporation", "address": "19500 Tomlinson Rd., Westfield, IN, 46074", "county": "Hamilton", "NAME": "Westfield-Washington Schools" }, "geometry": { "type": "Point", "coordinates": [ -86.1388649, 40.0709784 ] } },
{ "type": "Feature", "properties": { "corp_id": "3055", "corp_name": "Sheridan Community Schools", "typ": "School Corporation", "address": "24795 N Hinesley Rd, Sheridan, IN, 46069", "county": "Hamilton", "NAME": "Sheridan Community Schools" }, "geometry": { "type": "Point", "coordinates": [ -86.2167232, 40.1470545 ] } },
{ "type": "Feature", "properties": { "corp_id": "3060", "corp_name": "Carmel Clay Schools", "typ": "School Corporation", "address": "5201 E Main St, Carmel, IN, 46033", "county": "Hamilton", "NAME": "Carmel Clay Schools" }, "geometry": { "type": "Point", "coordinates": [ -86.0810734, 39.9777936 ] } },
{ "type": "Feature", "properties": { "corp_id": "3070", "corp_name": "Noblesville Schools", "typ": "School Corporation", "address": "18025 River Ave, Noblesville, IN, 46062", "county": "Hamilton", "NAME": "Noblesville Schools" }, "geometry": { "type": "Point", "coordinates": [ -86.0290815, 40.0496787 ] } },
{ "type": "Feature", "properties": { "corp_id": "3115", "corp_name": "Southern Hancock County Community School Corporation", "typ": "School Corporation", "address": "PO Box 508, New Palestine, IN, 46163", "county": "Hancock", "NAME": "Southern Hancock County Community School Corporation" }, "geometry": { "type": "Point", "coordinates": [ -85.8690933, 39.7228776 ] } },
{ "type": "Feature", "properties": { "corp_id": "3125", "corp_name": "Greenfield-Central Community Schools", "typ": "School Corporation", "address": "110 W North St, Greenfield, IN, 46140", "county": "Hancock", "NAME": "Greenfield-Central Community Schools" }, "geometry": { "type": "Point", "coordinates": [ -85.77119, 39.786427499999988 ] } },
{ "type": "Feature", "properties": { "corp_id": "3135", "corp_name": "Mt Vernon Community School Corporation", "typ": "School Corporation", "address": "1806 W SR 234, Fortville, IN, 46040", "county": "Hancock", "NAME": "Mount Vernon Community School Corporation" }, "geometry": { "type": "Point", "coordinates": [ -85.8401638, 39.9010796 ] } },
{ "type": "Feature", "properties": { "corp_id": "3145", "corp_name": "Eastern Hancock County Community School Corporation", "typ": "School Corporation", "address": "10370 E 250 N, Charlottesville, IN, 46117", "county": "Hancock", "NAME": "Eastern Hancock County Community School Corporation" }, "geometry": { "type": "Point", "coordinates": [ -85.6096814, 39.823747700000013 ] } },
{ "type": "Feature", "properties": { "corp_id": "3160", "corp_name": "Lanesville Community School Corporation", "typ": "School Corporation", "address": "2725 Crestview Ave NE, Lanesville, IN, 47136", "county": "Harrison", "NAME": "Lanesville Community School Corporation" }, "geometry": { "type": "Point", "coordinates": [ -85.9891043, 38.2390105 ] } },
{ "type": "Feature", "properties": { "corp_id": "3180", "corp_name": "North Harrison Community School Corporation", "typ": "School Corporation", "address": "1260 Hwy 64 NW, Ramsey, IN, 47166", "county": "Harrison", "NAME": "North Harrison Community School Corporation" }, "geometry": { "type": "Point", "coordinates": [ -86.154826899999989, 38.3169506 ] } },
{ "type": "Feature", "properties": { "corp_id": "3190", "corp_name": "South Harrison Community Schools", "typ": "School Corporation", "address": "315 S Harrison Dr, Corydon, IN, 47112", "county": "Harrison", "NAME": "South Harrison Community Schools" }, "geometry": { "type": "Point", "coordinates": [ -86.1216513, 38.2028812 ] } },
{ "type": "Feature", "properties": { "corp_id": "3295", "corp_name": "North West Hendricks Schools", "typ": "School Corporation", "address": "Box 70, Lizton, IN, 46149", "county": "Hendricks", "NAME": "North West Hendricks Schools" }, "geometry": { "type": "Point", "coordinates": [ -86.5602614, 39.8687659 ] } },
{ "type": "Feature", "properties": { "corp_id": "3305", "corp_name": "Brownsburg Community School Corporation", "typ": "School Corporation", "address": "310 Stadium Dr, Brownsburg, IN, 46112", "county": "Hendricks", "NAME": "Brownsburg Community School Corporation" }, "geometry": { "type": "Point", "coordinates": [ -86.3896893, 39.8385959 ] } },
{ "type": "Feature", "properties": { "corp_id": "3315", "corp_name": "Avon Community School Corporation", "typ": "School Corporation", "address": "7203 E US Hwy 36, Avon, IN, 46123", "county": "Hendricks", "NAME": "Avon Community School Corporation" }, "geometry": { "type": "Point", "coordinates": [ -86.3946401, 39.7615222 ] } },
{ "type": "Feature", "properties": { "corp_id": "3325", "corp_name": "Danville Community School Corporation", "typ": "School Corporation", "address": "200 Warrior Way, Danville, IN, 46122", "county": "Hendricks", "NAME": "Danville Community School Corporation" }, "geometry": { "type": "Point", "coordinates": [ -86.5417385, 39.7589461 ] } },
{ "type": "Feature", "properties": { "corp_id": "3330", "corp_name": "Plainfield Community School Corporation", "typ": "School Corporation", "address": "985 S Longfellow Dr, Plainfield, IN, 46168", "county": "Hendricks", "NAME": "Plainfield Community School Corporation" }, "geometry": { "type": "Point", "coordinates": [ -86.395591, 39.6942116 ] } },
{ "type": "Feature", "properties": { "corp_id": "3335", "corp_name": "Mill Creek Community School Corporation", "typ": "School Corporation", "address": "6631 S CR 200 W, Clayton, IN, 46118", "county": "Hendricks", "NAME": "Mill Creek Community School Corporation" }, "geometry": { "type": "Point", "coordinates": [ -86.5596739, 39.6646095 ] } },
{ "type": "Feature", "properties": { "corp_id": "3405", "corp_name": "Blue River Valley Schools", "typ": "School Corporation", "address": "3038 US Highway 36 East, New Castle, IN, 47362", "county": "Henry", "NAME": "Blue River Valley Schools" }, "geometry": { "type": "Point", "coordinates": [ -85.3270225, 40.0048833 ] } },
{ "type": "Feature", "properties": { "corp_id": "3415", "corp_name": "South Henry School Corporation", "typ": "School Corporation", "address": "6972 S SR 103, Straughn, IN, 47387", "county": "Henry", "NAME": "South Henry School Corporation" }, "geometry": { "type": "Point", "coordinates": [ -85.3342973, 39.8260342 ] } },
{ "type": "Feature", "properties": { "corp_id": "3435", "corp_name": "Shenandoah School Corporation", "typ": "School Corporation", "address": "5100 N Raider Rd, Middletown, IN, 47356", "county": "Henry", "NAME": "Shenandoah School Corporation" }, "geometry": { "type": "Point", "coordinates": [ -85.5256986, 40.0059389 ] } },
{ "type": "Feature", "properties": { "corp_id": "3445", "corp_name": "New Castle Community School Corporation", "typ": "School Corporation", "address": "322 Elliott Ave, New Castle, IN, 47362", "county": "Henry", "NAME": "New Castle Community School Corporation" }, "geometry": { "type": "Point", "coordinates": [ -85.380257899999989, 39.9261015 ] } },
{ "type": "Feature", "properties": { "corp_id": "3455", "corp_name": "C A Beard Memorial School Corporation", "typ": "School Corporation", "address": "8139 W US 40, Knightstown, IN, 46148", "county": "Henry", "NAME": "C. A. Beard Memorial School Corporation" }, "geometry": { "type": "Point", "coordinates": [ -85.5874135, 39.7921207 ] } },
{ "type": "Feature", "properties": { "corp_id": "3460", "corp_name": "Taylor Community School Corporation", "typ": "School Corporation", "address": "3750 E CR 300 S, Kokomo, IN, 46902", "county": "Howard", "NAME": "Taylor Community School Corporation" }, "geometry": { "type": "Point", "coordinates": [ -86.0551143, 40.4346825 ] } },
{ "type": "Feature", "properties": { "corp_id": "3470", "corp_name": "Northwestern School Corporation", "typ": "School Corporation", "address": "3075 N Washington St, Kokomo, IN, 46901", "county": "Howard", "NAME": "Northwestern School Corporation" }, "geometry": { "type": "Point", "coordinates": [ -86.1283246, 40.5212211 ] } },
{ "type": "Feature", "properties": { "corp_id": "3480", "corp_name": "Eastern Howard School Corporation", "typ": "School Corporation", "address": "221 W Main Suite One, Greentown, IN, 46936", "county": "Howard", "NAME": "Eastern Howard School Corporation" }, "geometry": { "type": "Point", "coordinates": [ -85.9687585, 40.4776822 ] } },
{ "type": "Feature", "properties": { "corp_id": "3490", "corp_name": "Western School Corporation", "typ": "School Corporation", "address": "2600 S 600 W, Russiaville, IN, 46979", "county": "Howard", "NAME": "Western School Corporation" }, "geometry": { "type": "Point", "coordinates": [ -86.2433462, 40.4372676 ] } },
{ "type": "Feature", "properties": { "corp_id": "3500", "corp_name": "Kokomo School Corporation", "typ": "School Corporation", "address": "1500 S Washington PO Box 2188, Kokomo, IN, 46904", "county": "Howard", "NAME": "Kokomo-Center Township Consolidated School Corporation" }, "geometry": { "type": "Point", "coordinates": [ -86.1327501, 40.4688951 ] } },
{ "type": "Feature", "properties": { "corp_id": "3625", "corp_name": "Huntington County Community School Corporation", "typ": "School Corporation", "address": "1063 E 900 S, Warren, IN, 46792", "county": "Huntington", "NAME": "Huntington County Community School Corporation" }, "geometry": { "type": "Point", "coordinates": [ -85.427556, 40.695733 ] } },
{ "type": "Feature", "properties": { "corp_id": "3640", "corp_name": "Medora Community School Corporation", "typ": "School Corporation", "address": "PO Box 369, Medora, IN, 47260", "county": "Jackson", "NAME": "Medora Community School Corporation" }, "geometry": { "type": "Point", "coordinates": [ -86.1955169, 38.8215176 ] } },
{ "type": "Feature", "properties": { "corp_id": "3675", "corp_name": "Seymour Community Schools", "typ": "School Corporation", "address": "1420 Corporate Way, Seymour, IN, 47274", "county": "Jackson", "NAME": "Seymour Community Schools" }, "geometry": { "type": "Point", "coordinates": [ -85.909929, 38.9485714 ] } },
{ "type": "Feature", "properties": { "corp_id": "3695", "corp_name": "Brownstown Central Community School Corporation", "typ": "School Corporation", "address": "608 W Commerce St, Brownstown, IN, 47220", "county": "Jackson", "NAME": "Brownstown Central Community School Corporation" }, "geometry": { "type": "Point", "coordinates": [ -86.0494652, 38.878108 ] } },
{ "type": "Feature", "properties": { "corp_id": "3710", "corp_name": "Crothersville Community Schools", "typ": "School Corporation", "address": "201 S Preston St, Crothersville, IN, 47229", "county": "Jackson", "NAME": "Crothersville Community Schools" }, "geometry": { "type": "Point", "coordinates": [ -85.8360541, 38.7963604 ] } },
{ "type": "Feature", "properties": { "corp_id": "3785", "corp_name": "Kankakee Valley School Corporation", "typ": "School Corporation", "address": "PO Box 278, Wheatfield, IN, 46392", "county": "Jasper", "NAME": "Kankakee Valley School Corporation" }, "geometry": { "type": "Point", "coordinates": [ -87.1023746, 41.2043542 ] } },
{ "type": "Feature", "properties": { "corp_id": "3815", "corp_name": "Rensselaer Central School Corporation", "typ": "School Corporation", "address": "900 E Washington St, Rensselaer, IN, 47978", "county": "Jasper", "NAME": "Rensselaer Central School Corporation" }, "geometry": { "type": "Point", "coordinates": [ -87.1405929, 40.9385132 ] } },
{ "type": "Feature", "properties": { "corp_id": "3945", "corp_name": "Jay School Corporation", "typ": "School Corporation", "address": "1976 W Tyson Rd, Portland, IN, 47371", "county": "Jay", "NAME": "Jay School Corporation" }, "geometry": { "type": "Point", "coordinates": [ -85.0056064, 40.4323188 ] } },
{ "type": "Feature", "properties": { "corp_id": "3995", "corp_name": "Madison Consolidated Schools", "typ": "School Corporation", "address": "2421 Wilson Ave, Madison, IN, 47250", "county": "Jefferson", "NAME": "Madison Consolidated Schools" }, "geometry": { "type": "Point", "coordinates": [ -85.4069225, 38.7726834 ] } },
{ "type": "Feature", "properties": { "corp_id": "4000", "corp_name": "Southwestern-Jefferson County Consolidated", "typ": "School Corporation", "address": "239 S Main Cross St, Hanover, IN, 47243", "county": "Jefferson", "NAME": "Southwestern Jefferson County Consolidated Schools" }, "geometry": { "type": "Point", "coordinates": [ -85.4735702, 38.7078324 ] } },
{ "type": "Feature", "properties": { "corp_id": "4015", "corp_name": "Jennings County School Corporation", "typ": "School Corporation", "address": "34 Main St, North Vernon, IN, 47265", "county": "Jennings", "NAME": "Jennings County Schools" }, "geometry": { "type": "Point", "coordinates": [ -85.684578, 38.9914998 ] } },
{ "type": "Feature", "properties": { "corp_id": "4145", "corp_name": "Clark-Pleasant Community School Corporation", "typ": "School Corporation", "address": "50 Center St, Whiteland, IN, 46184", "county": "Johnson", "NAME": "Clark-Pleasant Community School Corporation" }, "geometry": { "type": "Point", "coordinates": [ -86.0805654, 39.5507448 ] } },
{ "type": "Feature", "properties": { "corp_id": "4205", "corp_name": "Center Grove Community School Corporation", "typ": "School Corporation", "address": "4800 W Stones Crossing Rd, Greenwood, IN, 46143", "county": "Johnson", "NAME": "Center Grove Community School Corporation" }, "geometry": { "type": "Point", "coordinates": [ -86.1905516, 39.5779146 ] } },
{ "type": "Feature", "properties": { "corp_id": "4215", "corp_name": "Edinburgh Community School Corporation", "typ": "School Corporation", "address": "202 S Keeley St, Edinburgh, IN, 46124", "county": "Johnson", "NAME": "Edinburgh Community School Corporation" }, "geometry": { "type": "Point", "coordinates": [ -85.9699743, 39.3529052 ] } },
{ "type": "Feature", "properties": { "corp_id": "4225", "corp_name": "Franklin Community School Corporation", "typ": "School Corporation", "address": "998 Grizzly Cub Dr, Franklin, IN, 46131", "county": "Johnson", "NAME": "Franklin Community School Corporation" }, "geometry": { "type": "Point", "coordinates": [ -86.063427, 39.4903895 ] } },
{ "type": "Feature", "properties": { "corp_id": "4245", "corp_name": "Greenwood Community School Corporation", "typ": "School Corporation", "address": "605 W Smith Valley Rd, Greenwood, IN, 46142", "county": "Johnson", "NAME": "Greenwood Community School Corporation" }, "geometry": { "type": "Point", "coordinates": [ -86.1164736, 39.6056678 ] } },
{ "type": "Feature", "properties": { "corp_id": "4255", "corp_name": "Nineveh-Hensley-Jackson United", "typ": "School Corporation", "address": "802 S Indian Creek Dr, Trafalgar, IN, 46181", "county": "Johnson", "NAME": "Nineveh-Hensley-Jackson United School Corporation" }, "geometry": { "type": "Point", "coordinates": [ -86.1586123, 39.4097109 ] } },
{ "type": "Feature", "properties": { "corp_id": "4315", "corp_name": "North Knox School Corporation", "typ": "School Corporation", "address": "11110 N SR 159, Bicknell, IN, 47512", "county": "Knox", "NAME": "North Knox School Corporation" }, "geometry": { "type": "Point", "coordinates": [ -87.30964, 38.7910527 ] } },
{ "type": "Feature", "properties": { "corp_id": "4325", "corp_name": "South Knox School Corporation", "typ": "School Corporation", "address": "6116 E SR 61, Vincennes, IN, 47591", "county": "Knox", "NAME": "South Knox School Corporation" }, "geometry": { "type": "Point", "coordinates": [ -87.4236546, 38.6364312 ] } },
{ "type": "Feature", "properties": { "corp_id": "4335", "corp_name": "Vincennes Community School Corporation", "typ": "School Corporation", "address": "1712 S Quail Run Road, Vincennes, IN, 47591", "county": "Knox", "NAME": "Vincennes Community School Corporation" }, "geometry": { "type": "Point", "coordinates": [ -87.4957085, 38.6507891 ] } },
{ "type": "Feature", "properties": { "corp_id": "4345", "corp_name": "Wawasee Community School Corporation", "typ": "School Corporation", "address": "801 S Sycamore St, Syracuse, IN, 46567", "county": "Kosciusko", "NAME": "Wawasee Community School Corporation" }, "geometry": { "type": "Point", "coordinates": [ -85.7494001, 41.413952599999988 ] } },
{ "type": "Feature", "properties": { "corp_id": "4415", "corp_name": "Warsaw Community Schools", "typ": "School Corporation", "address": "PO Box 288, Warsaw, IN, 46581", "county": "Kosciusko", "NAME": "Warsaw Community Schools" }, "geometry": { "type": "Point", "coordinates": [ -85.80766, 41.2448875 ] } },
{ "type": "Feature", "properties": { "corp_id": "4445", "corp_name": "Tippecanoe Valley School Corporation", "typ": "School Corporation", "address": "8343 S SR 19, Akron, IN, 46910", "county": "Kosciusko", "NAME": "Tippecanoe Valley School Corporation" }, "geometry": { "type": "Point", "coordinates": [ -86.0387963, 41.1111561 ] } },
{ "type": "Feature", "properties": { "corp_id": "4455", "corp_name": "Whitko Community School Corporation", "typ": "School Corporation", "address": "710 N SR 5, Suite B, Larwill, IN, 46764", "county": "Whitley", "NAME": "Whitko Community School Corporation" }, "geometry": { "type": "Point", "coordinates": [ -85.643487, 41.1585232 ] } },
{ "type": "Feature", "properties": { "corp_id": "4515", "corp_name": "Prairie Heights Community School Corporation", "typ": "School Corporation", "address": "0305 S 1150 E, LaGrange, IN, 46761", "county": "Lagrange", "NAME": "Prairie Heights Community School Corporation" }, "geometry": { "type": "Point", "coordinates": [ -85.2008972, 41.6388854 ] } },
{ "type": "Feature", "properties": { "corp_id": "4525", "corp_name": "Westview School Corporation", "typ": "School Corporation", "address": "1545 S 600 W, Topeka, IN, 46571", "county": "Lagrange", "NAME": "Westview School Corporation" }, "geometry": { "type": "Point", "coordinates": [ -85.5397301, 41.6173213 ] } },
{ "type": "Feature", "properties": { "corp_id": "4535", "corp_name": "Lakeland School Corporation", "typ": "School Corporation", "address": "0825 E 075 N, LaGrange, IN, 46761", "county": "Lagrange", "NAME": "Lakeland School Corporation" }, "geometry": { "type": "Point", "coordinates": [ -85.4089215, 41.6542855 ] } },
{ "type": "Feature", "properties": { "corp_id": "4580", "corp_name": "Hanover Community School Corporation", "typ": "School Corporation", "address": "PO Box 645, Cedar Lake, IN, 46303", "county": "Lake", "NAME": "Hanover Community School Corporation" }, "geometry": { "type": "Point", "coordinates": [ -87.4802068, 41.3937315 ] } },
{ "type": "Feature", "properties": { "corp_id": "4590", "corp_name": "River Forest Community School Corporation", "typ": "School Corporation", "address": "3250 Michigan St, Hobart, IN, 46342", "county": "Lake", "NAME": "River Forest Community School Corporation" }, "geometry": { "type": "Point", "coordinates": [ -87.2750062, 41.5585442 ] } },
{ "type": "Feature", "properties": { "corp_id": "4600", "corp_name": "Merrillville Community School Corporation", "typ": "School Corporation", "address": "6701 Delaware St, Merrillville, IN, 46410", "county": "Lake", "NAME": "Merrillville Community School" }, "geometry": { "type": "Point", "coordinates": [ -87.330302, 41.4966412 ] } },
{ "type": "Feature", "properties": { "corp_id": "4615", "corp_name": "Lake Central School Corporation", "typ": "School Corporation", "address": "8260 Wicker Ave, Saint John, IN, 46373", "county": "Lake", "NAME": "Lake Central School Corporation" }, "geometry": { "type": "Point", "coordinates": [ -87.4726808, 41.4669846 ] } },
{ "type": "Feature", "properties": { "corp_id": "4645", "corp_name": "Tri-Creek School Corporation", "typ": "School Corporation", "address": "19290 Cline Avenue, Lowell, IN, 46356", "county": "Lake", "NAME": "Tri-Creek School Corporation" }, "geometry": { "type": "Point", "coordinates": [ -87.4294058, 41.2170965 ] } },
{ "type": "Feature", "properties": { "corp_id": "4650", "corp_name": "Lake Ridge New Technology Schools", "typ": "School Corporation", "address": "6111 W Ridge Rd, Gary, IN, 46408", "county": "Lake", "NAME": "Lake Ridge Schools" }, "geometry": { "type": "Point", "coordinates": [ -87.411893, 41.5487228 ] } },
{ "type": "Feature", "properties": { "corp_id": "4660", "corp_name": "Crown Point Community School Corporation", "typ": "School Corporation", "address": "200 E North St, Crown Point, IN, 46307", "county": "Lake", "NAME": "Crown Point Community School Corporation" }, "geometry": { "type": "Point", "coordinates": [ -87.3626769, 41.4206147 ] } },
{ "type": "Feature", "properties": { "corp_id": "4670", "corp_name": "School City of East Chicago", "typ": "School Corporation", "address": "1401 E 144th Street, East Chicago, IN, 46312", "county": "Lake", "NAME": "City of East Chicago School District" }, "geometry": { "type": "Point", "coordinates": [ -87.4532462, 41.6330037 ] } },
{ "type": "Feature", "properties": { "corp_id": "4680", "corp_name": "Lake Station Community Schools", "typ": "School Corporation", "address": "2500 Pike St, Lake Station, IN, 46405", "county": "Lake", "NAME": "Lake Station Community Schools" }, "geometry": { "type": "Point", "coordinates": [ -87.2447721, 41.5726247 ] } },
{ "type": "Feature", "properties": { "corp_id": "4690", "corp_name": "Gary Community School Corporation", "typ": "School Corporation", "address": "PO Box 4608, Gary, IN, 46404", "county": "Lake", "NAME": "Gary Community School Corporation" }, "geometry": { "type": "Point", "coordinates": [ -87.3512913, 41.6007075 ] } },
{ "type": "Feature", "properties": { "corp_id": "4700", "corp_name": "Griffith Public Schools", "typ": "School Corporation", "address": "601 N Raymond, Griffith, IN, 46319", "county": "Lake", "NAME": "Griffith Public Schools" }, "geometry": { "type": "Point", "coordinates": [ -87.4345849, 41.5320369 ] } },
{ "type": "Feature", "properties": { "corp_id": "4710", "corp_name": "School City of Hammond", "typ": "School Corporation", "address": "41 Williams Street, Hammond, IN, 46320", "county": "Lake", "NAME": "Hammond School City" }, "geometry": { "type": "Point", "coordinates": [ -87.5242432, 41.6113681 ] } },
{ "type": "Feature", "properties": { "corp_id": "4720", "corp_name": "School Town of Highland", "typ": "School Corporation", "address": "9145 Kennedy Ave, Highland, IN, 46322", "county": "Lake", "NAME": "Highland School Town" }, "geometry": { "type": "Point", "coordinates": [ -87.4608613, 41.5468806 ] } },
{ "type": "Feature", "properties": { "corp_id": "4730", "corp_name": "School City of Hobart", "typ": "School Corporation", "address": "32 E 7th St, Hobart, IN, 46342", "county": "Lake", "NAME": "Hobart School City" }, "geometry": { "type": "Point", "coordinates": [ -87.2583105, 41.5275117 ] } },
{ "type": "Feature", "properties": { "corp_id": "4740", "corp_name": "School Town of Munster", "typ": "School Corporation", "address": "8616 Columbia Ave, Munster, IN, 46321", "county": "Lake", "NAME": "Munster School Town" }, "geometry": { "type": "Point", "coordinates": [ -87.5016443, 41.5582966 ] } },
{ "type": "Feature", "properties": { "corp_id": "4760", "corp_name": "School City of Whiting", "typ": "School Corporation", "address": "1500 Center St, Whiting, IN, 46394", "county": "Lake", "NAME": "Whiting School City" }, "geometry": { "type": "Point", "coordinates": [ -87.4904953, 41.6814583 ] } },
{ "type": "Feature", "properties": { "corp_id": "4805", "corp_name": "New Prairie United School Corporation", "typ": "School Corporation", "address": "5327 N Cougar Rd, New Carlisle, IN, 46552", "county": "LaPorte", "NAME": "New Prairie United School Corporation" }, "geometry": { "type": "Point", "coordinates": [ -86.5639615, 41.6830983 ] } },
{ "type": "Feature", "properties": { "corp_id": "4860", "corp_name": "Metropolitan School District of New Durham Township", "typ": "School Corporation", "address": "207 E Valparaiso St, Westville, IN, 46391", "county": "LaPorte", "NAME": "New Durham Township Metropolitan School District" }, "geometry": { "type": "Point", "coordinates": [ -86.8938787, 41.5420097 ] } },
{ "type": "Feature", "properties": { "corp_id": "4915", "corp_name": "Tri-Township Consolidated School Corporation", "typ": "School Corporation", "address": "PO Box 249, Wanatah, IN, 46390", "county": "LaPorte", "NAME": "Tri-Township Consolidated School Corporation" }, "geometry": { "type": "Point", "coordinates": [ -86.8621827, 41.3585564 ] } },
{ "type": "Feature", "properties": { "corp_id": "4925", "corp_name": "Michigan City Area Schools", "typ": "School Corporation", "address": "408 S Carroll Ave, Michigan City, IN, 46360", "county": "LaPorte", "NAME": "Michigan City Area Schools" }, "geometry": { "type": "Point", "coordinates": [ -86.8684232, 41.7059889 ] } },
{ "type": "Feature", "properties": { "corp_id": "4940", "corp_name": "South Central Community School Corporation", "typ": "School Corporation", "address": "9808 S 600 W, Union Mills, IN, 46382", "county": "LaPorte", "NAME": "South Central Community School Corporation" }, "geometry": { "type": "Point", "coordinates": [ -86.816215, 41.464207 ] } },
{ "type": "Feature", "properties": { "corp_id": "4945", "corp_name": "LaPorte Community School Corporation", "typ": "School Corporation", "address": "1921 'A' St, LaPorte, IN, 46350", "county": "LaPorte", "NAME": "La Porte Community School Corporation" }, "geometry": { "type": "Point", "coordinates": [ -86.7186185, 41.5889814 ] } },
{ "type": "Feature", "properties": { "corp_id": "5075", "corp_name": "North Lawrence Community Schools", "typ": "School Corporation", "address": "PO Box 729, Bedford, IN, 47421", "county": "Lawrence", "NAME": "North Lawrence Community Schools" }, "geometry": { "type": "Point", "coordinates": [ -86.4592091, 38.8924224 ] } },
{ "type": "Feature", "properties": { "corp_id": "5085", "corp_name": "Mitchell Community Schools", "typ": "School Corporation", "address": "441 N 8th St, Mitchell, IN, 47446", "county": "Lawrence", "NAME": "Mitchell Community Schools" }, "geometry": { "type": "Point", "coordinates": [ -86.4767183, 38.7360176 ] } },
{ "type": "Feature", "properties": { "corp_id": "5245", "corp_name": "Frankton-Lapel Community Schools", "typ": "School Corporation", "address": "7916 W 300 N, Anderson, IN, 46011", "county": "Madison", "NAME": "Frankton-Lapel Community Schools" }, "geometry": { "type": "Point", "coordinates": [ -85.823123900000013, 40.1497456 ] } },
{ "type": "Feature", "properties": { "corp_id": "5255", "corp_name": "South Madison Community School Corporation", "typ": "School Corporation", "address": "203 S Heritage Way, Pendleton, IN, 46064", "county": "Madison", "NAME": "South Madison Community School Corporation" }, "geometry": { "type": "Point", "coordinates": [ -85.7638416, 40.0007336 ] } },
{ "type": "Feature", "properties": { "corp_id": "5265", "corp_name": "Alexandria Community School Corporation", "typ": "School Corporation", "address": "800 N. Central, Alexandria, IN, 46001", "county": "Madison", "NAME": "Alexandria Community School Corporation" }, "geometry": { "type": "Point", "coordinates": [ -85.6815225, 40.2696425 ] } },
{ "type": "Feature", "properties": { "corp_id": "5275", "corp_name": "Anderson Community School Corporation", "typ": "School Corporation", "address": "1600 Hillcrest Ave, Anderson, IN, 46011", "county": "Madison", "NAME": "Anderson Community School Corporation" }, "geometry": { "type": "Point", "coordinates": [ -85.6984491, 40.1264238 ] } },
{ "type": "Feature", "properties": { "corp_id": "5280", "corp_name": "Elwood Community School Corporation", "typ": "School Corporation", "address": "1306 N Anderson St, Elwood, IN, 46036", "county": "Madison", "NAME": "Elwood Community School Corporation" }, "geometry": { "type": "Point", "coordinates": [ -85.8427141, 40.2918686 ] } },
{ "type": "Feature", "properties": { "corp_id": "5300", "corp_name": "Metropolitan School District Decatur Township", "typ": "School Corporation", "address": "5275 Kentucky Ave, Indianapolis, IN, 46221", "county": "Marion", "NAME": "Decatur Township Metropolitan School District" }, "geometry": { "type": "Point", "coordinates": [ -86.2770749, 39.686445 ] } },
{ "type": "Feature", "properties": { "corp_id": "5310", "corp_name": "Franklin Township Community School Corporation", "typ": "School Corporation", "address": "6141 S Franklin Rd, Indianapolis, IN, 46259", "county": "Marion", "NAME": "Franklin Township Community School Corporation" }, "geometry": { "type": "Point", "coordinates": [ -86.0181253, 39.6782549 ] } },
{ "type": "Feature", "properties": { "corp_id": "5330", "corp_name": "Metropolitan School District Lawrence Township", "typ": "School Corporation", "address": "6501 Sunnyside Rd, Indianapolis, IN, 46236", "county": "Marion", "NAME": "Lawrence Township Metropolitan School District" }, "geometry": { "type": "Point", "coordinates": [ -85.971256, 39.8775748 ] } },
{ "type": "Feature", "properties": { "corp_id": "5340", "corp_name": "Perry Township Schools", "typ": "School Corporation", "address": "6548 Orinoco Ave, Indianapolis, IN, 46227", "county": "Marion", "NAME": "Perry Township Metropolitan School District" }, "geometry": { "type": "Point", "coordinates": [ -86.136058, 39.6710606 ] } },
{ "type": "Feature", "properties": { "corp_id": "5350", "corp_name": "Metropolitan School District Pike Township", "typ": "School Corporation", "address": "6901 Zionsville Rd, Indianapolis, IN, 46268", "county": "Marion", "NAME": "Pike Township Metropolitan School District" }, "geometry": { "type": "Point", "coordinates": [ -86.2591214, 39.878646 ] } },
{ "type": "Feature", "properties": { "corp_id": "5360", "corp_name": "Metropolitan School District Warren Township", "typ": "School Corporation", "address": "975 N Post Rd, Indianapolis, IN, 46219", "county": "Marion", "NAME": "Warren Township Metropolitan School District" }, "geometry": { "type": "Point", "coordinates": [ -86.0086465, 39.7815456 ] } },
{ "type": "Feature", "properties": { "corp_id": "5370", "corp_name": "Metropolitan School District Washington Township", "typ": "School Corporation", "address": "8550 Woodfield Crossing Blvd, Indianapolis, IN, 46240", "county": "Marion", "NAME": "Washington Township Metropolitan School District" }, "geometry": { "type": "Point", "coordinates": [ -86.1244808, 39.9119226 ] } },
{ "type": "Feature", "properties": { "corp_id": "5375", "corp_name": "Metropolitan School District Wayne Township", "typ": "School Corporation", "address": "1220 S High Sch Rd, Indianapolis, IN, 46241", "county": "Marion", "NAME": "Wayne Township Metropolitan School District" }, "geometry": { "type": "Point", "coordinates": [ -86.2666463, 39.767184 ] } },
{ "type": "Feature", "properties": { "corp_id": "5380", "corp_name": "Beech Grove City Schools", "typ": "School Corporation", "address": "5334 Hornet Ave, Beech Grove, IN, 46107", "county": "Marion", "NAME": "Beech Grove City Schools" }, "geometry": { "type": "Point", "coordinates": [ -86.076684899999989, 39.7127396 ] } },
{ "type": "Feature", "properties": { "corp_id": "5385", "corp_name": "Indianapolis Public Schools", "typ": "School Corporation", "address": "120 E Walnut St, Indianapolis, IN, 46204", "county": "Marion", "NAME": "Indianapolis Public Schools" }, "geometry": { "type": "Point", "coordinates": [ -86.1545603, 39.7769924 ] } },
{ "type": "Feature", "properties": { "corp_id": "5400", "corp_name": "School Town of Speedway", "typ": "School Corporation", "address": "5300 Crawfordsville Rd, Speedway, IN, 46224", "county": "Marion", "NAME": "Speedway School Town" }, "geometry": { "type": "Point", "coordinates": [ -86.2515138, 39.7926132 ] } },
{ "type": "Feature", "properties": { "corp_id": "5455", "corp_name": "Culver Community Schools Corporation", "typ": "School Corporation", "address": "700 School Street, Culver, IN, 46511", "county": "Marshall", "NAME": "Culver Community Schools Corporation" }, "geometry": { "type": "Point", "coordinates": [ -86.4238357, 41.2228909 ] } },
{ "type": "Feature", "properties": { "corp_id": "5470", "corp_name": "Argos Community Schools", "typ": "School Corporation", "address": "500 Yearick Ave, Argos, IN, 46501", "county": "Marshall", "NAME": "Argos Community Schools" }, "geometry": { "type": "Point", "coordinates": [ -86.2485037, 41.2376393 ] } },
{ "type": "Feature", "properties": { "corp_id": "5480", "corp_name": "Bremen Public Schools", "typ": "School Corporation", "address": "512 W Grant St, Bremen, IN, 46506", "county": "Marshall", "NAME": "Bremen Public Schools" }, "geometry": { "type": "Point", "coordinates": [ -86.1519845, 41.4429108 ] } },
{ "type": "Feature", "properties": { "corp_id": "5485", "corp_name": "Plymouth Community School Corporation", "typ": "School Corporation", "address": "611 Berkley St, Plymouth, IN, 46563", "county": "Marshall", "NAME": "Plymouth Community School Corporation" }, "geometry": { "type": "Point", "coordinates": [ -86.3020376, 41.3461273 ] } },
{ "type": "Feature", "properties": { "corp_id": "5495", "corp_name": "Triton School Corporation", "typ": "School Corporation", "address": "100 Triton Dr, Bourbon, IN, 46504", "county": "Marshall", "NAME": "Triton School Corporation" }, "geometry": { "type": "Point", "coordinates": [ -86.1112827, 41.3010524 ] } },
{ "type": "Feature", "properties": { "corp_id": "5520", "corp_name": "Shoals Community School Corporation", "typ": "School Corporation", "address": "11741 Ironton Rd, Shoals, IN, 47581", "county": "Martin", "NAME": "Shoals Community School Corporation" }, "geometry": { "type": "Point", "coordinates": [ -86.7768572, 38.6681 ] } },
{ "type": "Feature", "properties": { "corp_id": "5525", "corp_name": "Loogootee Community School Corporation", "typ": "School Corporation", "address": "P O Box 282, Loogootee, IN, 47553", "county": "Martin", "NAME": "Loogootee Community School Corporation" }, "geometry": { "type": "Point", "coordinates": [ -86.8621827, 38.820375299999988 ] } },
{ "type": "Feature", "properties": { "corp_id": "5615", "corp_name": "Maconaquah School Corporation", "typ": "School Corporation", "address": "7932 S Strawtown Pike, Bunker Hill, IN, 46914", "county": "Miami", "NAME": "Maconaquah School Corporation" }, "geometry": { "type": "Point", "coordinates": [ -86.059771, 40.6511411 ] } },
{ "type": "Feature", "properties": { "corp_id": "5620", "corp_name": "North Miami Community Schools", "typ": "School Corporation", "address": "394 E 900 N, Denver, IN, 46926", "county": "Miami", "NAME": "North Miami Community Schools" }, "geometry": { "type": "Point", "coordinates": [ -86.0682605, 40.8958123 ] } },
{ "type": "Feature", "properties": { "corp_id": "5625", "corp_name": "Oak Hill United School Corporation", "typ": "School Corporation", "address": "1474 N 800 W, PO Box 550, Converse, IN, 46919", "county": "Grant", "NAME": "Oak Hill United School Corporation" }, "geometry": { "type": "Point", "coordinates": [ -85.825373, 40.5732061 ] } },
{ "type": "Feature", "properties": { "corp_id": "5635", "corp_name": "Peru Community Schools", "typ": "School Corporation", "address": "35 W 3rd St, Peru, IN, 46970", "county": "Miami", "NAME": "Peru Community Schools" }, "geometry": { "type": "Point", "coordinates": [ -86.0693488, 40.7522667 ] } },
{ "type": "Feature", "properties": { "corp_id": "5705", "corp_name": "Richland-Bean Blossom Community School Corporation", "typ": "School Corporation", "address": "600 S Edgewood Dr, Ellettsville, IN, 47429", "county": "Monroe", "NAME": "Richland-Bean Blossom Community School Corporation" }, "geometry": { "type": "Point", "coordinates": [ -86.633711, 39.2361338 ] } },
{ "type": "Feature", "properties": { "corp_id": "5740", "corp_name": "Monroe County Community School Corporation", "typ": "School Corporation", "address": "315 E North Dr, Bloomington, IN, 47401", "county": "Monroe", "NAME": "Monroe County Community School Corporation" }, "geometry": { "type": "Point", "coordinates": [ -86.5305985, 39.1449503 ] } },
{ "type": "Feature", "properties": { "corp_id": "5835", "corp_name": "North Montgomery Community School Corporation", "typ": "School Corporation", "address": "480 W 580 N, Crawfordsville, IN, 47933", "county": "Montgomery", "NAME": "North Montgomery Community School Corporation" }, "geometry": { "type": "Point", "coordinates": [ -86.9131124, 40.1236215 ] } },
{ "type": "Feature", "properties": { "corp_id": "5845", "corp_name": "South Montgomery Community School Corporation", "typ": "School Corporation", "address": "PO Box 8, New Market, IN, 47965", "county": "Montgomery", "NAME": "South Montgomery Community School Corporation" }, "geometry": { "type": "Point", "coordinates": [ -86.7818523, 39.9777608 ] } },
{ "type": "Feature", "properties": { "corp_id": "5855", "corp_name": "Crawfordsville Community Schools", "typ": "School Corporation", "address": "1000 Fairview Ave, Crawfordsville, IN, 47933", "county": "Montgomery", "NAME": "Crawfordsville Community Schools" }, "geometry": { "type": "Point", "coordinates": [ -86.8882403, 40.0456096 ] } },
{ "type": "Feature", "properties": { "corp_id": "5900", "corp_name": "Monroe-Gregg School District", "typ": "School Corporation", "address": "135 S Chestnut St, Monrovia, IN, 46157", "county": "Morgan", "NAME": "Monroe-Gregg School District" }, "geometry": { "type": "Point", "coordinates": [ -86.4776288, 39.5760431 ] } },
{ "type": "Feature", "properties": { "corp_id": "5910", "corp_name": "Eminence Community School Corporation", "typ": "School Corporation", "address": "PO Box 135, Eminence, IN, 46125", "county": "Morgan", "NAME": "Eminence Community School Corporation" }, "geometry": { "type": "Point", "coordinates": [ -86.6006249, 39.4989766 ] } },
{ "type": "Feature", "properties": { "corp_id": "5925", "corp_name": "Metropolitan School District Martinsville Schools", "typ": "School Corporation", "address": "PO Box 1416, Martinsville, IN, 46151", "county": "Morgan", "NAME": "Martinsville Schools Metropolitan School District" }, "geometry": { "type": "Point", "coordinates": [ -86.4592091, 39.3913252 ] } },
{ "type": "Feature", "properties": { "corp_id": "5930", "corp_name": "Mooresville Consolidated School Corporation", "typ": "School Corporation", "address": "11 W Carlisle St, Mooresville, IN, 46158", "county": "Morgan", "NAME": "Mooresville Consolidated School Corporation" }, "geometry": { "type": "Point", "coordinates": [ -86.3799428, 39.6170144 ] } },
{ "type": "Feature", "properties": { "corp_id": "5945", "corp_name": "North Newton School Corporation", "typ": "School Corporation", "address": "PO Box 8, Morocco, IN, 47963", "county": "Newton", "NAME": "North Newton School Corporation" }, "geometry": { "type": "Point", "coordinates": [ -87.4207518, 41.0509537 ] } },
{ "type": "Feature", "properties": { "corp_id": "5995", "corp_name": "South Newton School Corporation", "typ": "School Corporation", "address": "13232 S 50 E, Kentland, IN, 47951", "county": "Newton", "NAME": "South Newton School Corporation" }, "geometry": { "type": "Point", "coordinates": [ -87.3829344, 40.8059927 ] } },
{ "type": "Feature", "properties": { "corp_id": "6055", "corp_name": "Central Noble Community School Corporation", "typ": "School Corporation", "address": "200 E Main St, Albion, IN, 46701", "county": "Noble", "NAME": "Central Noble Community School Corporation" }, "geometry": { "type": "Point", "coordinates": [ -85.4223393, 41.3954086 ] } },
{ "type": "Feature", "properties": { "corp_id": "6060", "corp_name": "East Noble School Corporation", "typ": "School Corporation", "address": "126 W Rush St, Kendallville, IN, 46755", "county": "Noble", "NAME": "East Noble School Corporation" }, "geometry": { "type": "Point", "coordinates": [ -85.266279, 41.441375 ] } },
{ "type": "Feature", "properties": { "corp_id": "6065", "corp_name": "West Noble School Corporation", "typ": "School Corporation", "address": "5050 N US 33, Ligonier, IN, 46767", "county": "Noble", "NAME": "West Noble School Corporation" }, "geometry": { "type": "Point", "coordinates": [ -85.5816829, 41.4259194 ] } },
{ "type": "Feature", "properties": { "corp_id": "6080", "corp_name": "Rising Sun-Ohio County Community", "typ": "School Corporation", "address": "110 S Henrietta St, Rising Sun, IN, 47040", "county": "Ohio", "NAME": "Rising Sun-Ohio County Community Schools" }, "geometry": { "type": "Point", "coordinates": [ -84.8589914, 38.9506064 ] } },
{ "type": "Feature", "properties": { "corp_id": "6145", "corp_name": "Orleans Community Schools", "typ": "School Corporation", "address": "173 W Marley St, Orleans, IN, 47452", "county": "Orange", "NAME": "Orleans Community Schools" }, "geometry": { "type": "Point", "coordinates": [ -86.454527900000016, 38.6687848 ] } },
{ "type": "Feature", "properties": { "corp_id": "6155", "corp_name": "Paoli Community School Corporation", "typ": "School Corporation", "address": "501 Elm St - Ofc Supt, Paoli, IN, 47454", "county": "Orange", "NAME": "Paoli Community School Corporation" }, "geometry": { "type": "Point", "coordinates": [ -86.47701, 38.5497709 ] } },
{ "type": "Feature", "properties": { "corp_id": "6160", "corp_name": "Springs Valley Community School Corporation", "typ": "School Corporation", "address": "498 S Larry Bird Blvd, French Lick, IN, 47432", "county": "Orange", "NAME": "Springs Valley Community School Corporation" }, "geometry": { "type": "Point", "coordinates": [ -86.6169637, 38.5489744 ] } },
{ "type": "Feature", "properties": { "corp_id": "6195", "corp_name": "Spencer-Owen Community Schools", "typ": "School Corporation", "address": "205 E Hillside, Spencer, IN, 47460", "county": "Owen", "NAME": "Spencer-Owen Community Schools" }, "geometry": { "type": "Point", "coordinates": [ -86.7603009, 39.2899403 ] } },
{ "type": "Feature", "properties": { "corp_id": "6260", "corp_name": "Southwest Parke Community School Corporation", "typ": "School Corporation", "address": "4851 S Coxville Rd, Montezuma, IN, 47862", "county": "Parke", "NAME": "Southwest Parke Community School Corporation" }, "geometry": { "type": "Point", "coordinates": [ -87.324697, 39.698077 ] } },
{ "type": "Feature", "properties": { "corp_id": "6325", "corp_name": "Perry Central Community Schools Corporation", "typ": "School Corporation", "address": "18677 Old SR 37, Leopold, IN, 47551", "county": "Perry", "NAME": "Perry Central Community School Corporation" }, "geometry": { "type": "Point", "coordinates": [ -86.60415, 38.111347 ] } },
{ "type": "Feature", "properties": { "corp_id": "6340", "corp_name": "Cannelton City Schools", "typ": "School Corporation", "address": "109 S Third St, Cannelton, IN, 47520", "county": "Perry", "NAME": "Cannelton City Schools" }, "geometry": { "type": "Point", "coordinates": [ -86.7438865, 37.9102913 ] } },
{ "type": "Feature", "properties": { "corp_id": "6350", "corp_name": "Tell City-Troy Township School Corporation", "typ": "School Corporation", "address": "837 17th St, Tell City, IN, 47586", "county": "Perry", "NAME": "Tell City-Troy Township School Corporation" }, "geometry": { "type": "Point", "coordinates": [ -86.7215175, 37.9541186 ] } },
{ "type": "Feature", "properties": { "corp_id": "6375", "corp_name": "North Central Parke Comm School Corporation", "typ": "School Corporation", "address": "602 Howard Ave, Rockville, IN, 47872", "county": "Parke", "NAME": "North Central Parke Community School Corporation" }, "geometry": { "type": "Point", "coordinates": [ -87.2341978, 39.7679216 ] } },
{ "type": "Feature", "properties": { "corp_id": "6445", "corp_name": "Pike County School Corporation", "typ": "School Corporation", "address": "211 South 12th St, Petersburg, IN, 47567", "county": "Pike", "NAME": "Pike County School Corporation" }, "geometry": { "type": "Point", "coordinates": [ -87.2772225, 38.4918217 ] } },
{ "type": "Feature", "properties": { "corp_id": "6460", "corp_name": "Metropolitan School District Boone Township", "typ": "School Corporation", "address": "307 S Main St, Hebron, IN, 46341", "county": "Porter", "NAME": "Boone Township Metropolitan School District" }, "geometry": { "type": "Point", "coordinates": [ -87.1977404, 41.316463 ] } },
{ "type": "Feature", "properties": { "corp_id": "6470", "corp_name": "Duneland School Corporation", "typ": "School Corporation", "address": "601 W Morgan Ave, Chesterton, IN, 46304", "county": "Porter", "NAME": "Duneland School Corporation" }, "geometry": { "type": "Point", "coordinates": [ -87.059963, 41.6087847 ] } },
{ "type": "Feature", "properties": { "corp_id": "6510", "corp_name": "East Porter County School Corporation", "typ": "School Corporation", "address": "502 E College Ave - PO Box 370, Kouts, IN, 46347", "county": "Porter", "NAME": "East Porter County School Corporation" }, "geometry": { "type": "Point", "coordinates": [ -87.0306651, 41.314835599999988 ] } },
{ "type": "Feature", "properties": { "corp_id": "6520", "corp_name": "Porter Township School Corporation", "typ": "School Corporation", "address": "248 S 500 W, Valparaiso, IN, 46385", "county": "Porter", "NAME": "Porter Township School Corporation" }, "geometry": { "type": "Point", "coordinates": [ -87.1620456, 41.3986726 ] } },
{ "type": "Feature", "properties": { "corp_id": "6530", "corp_name": "Union Township School Corporation", "typ": "School Corporation", "address": "599 W 300 N Suite A, Valparaiso, IN, 46385", "county": "Porter", "NAME": "Union Township School Corporation" }, "geometry": { "type": "Point", "coordinates": [ -87.1471679, 41.506501 ] } },
{ "type": "Feature", "properties": { "corp_id": "6550", "corp_name": "Portage Township Schools", "typ": "School Corporation", "address": "6240 US Hwy 6, Portage, IN, 46368", "county": "Porter", "NAME": "Portage Township Schools" }, "geometry": { "type": "Point", "coordinates": [ -87.1723984, 41.5516742 ] } },
{ "type": "Feature", "properties": { "corp_id": "6560", "corp_name": "Valparaiso Community Schools", "typ": "School Corporation", "address": "3801 N Campbell St, Valparaiso, IN, 46385", "county": "Porter", "NAME": "Valparaiso Community Schools" }, "geometry": { "type": "Point", "coordinates": [ -87.0672163, 41.5021938 ] } },
{ "type": "Feature", "properties": { "corp_id": "6590", "corp_name": "Metropolitan School District Mount Vernon", "typ": "School Corporation", "address": "1000 W 4th St, Mount Vernon, IN, 47620", "county": "Posey", "NAME": "Mount Vernon Metropolitan School District" }, "geometry": { "type": "Point", "coordinates": [ -87.906771, 37.9290206 ] } },
{ "type": "Feature", "properties": { "corp_id": "6600", "corp_name": "Metropolitan School District North Posey County Schools", "typ": "School Corporation", "address": "101 N Church St, Poseyville, IN, 47633", "county": "Posey", "NAME": "North Posey County Schools Metropolitan School District" }, "geometry": { "type": "Point", "coordinates": [ -87.7847782, 38.1725346 ] } },
{ "type": "Feature", "properties": { "corp_id": "6620", "corp_name": "Eastern Pulaski Community School Corporation", "typ": "School Corporation", "address": "711 School Dr, Winamac, IN, 46996", "county": "Pulaski", "NAME": "Eastern Pulaski Community School Corporation" }, "geometry": { "type": "Point", "coordinates": [ -86.5975057, 41.046234899999988 ] } },
{ "type": "Feature", "properties": { "corp_id": "6630", "corp_name": "West Central School Corporation", "typ": "School Corporation", "address": "PO Box 578, Francesville, IN, 47946", "county": "Pulaski", "NAME": "West Central School Corporation" }, "geometry": { "type": "Point", "coordinates": [ -86.8621827, 41.037141 ] } },
{ "type": "Feature", "properties": { "corp_id": "6705", "corp_name": "South Putnam Community Schools", "typ": "School Corporation", "address": "3999 S US Hwy 231, Greencastle, IN, 46135", "county": "Putnam", "NAME": "Greencastle Community School Corporation" }, "geometry": { "type": "Point", "coordinates": [ -86.8326309, 39.6026821 ] } },
{ "type": "Feature", "properties": { "corp_id": "6715", "corp_name": "North Putnam Community Schools", "typ": "School Corporation", "address": "PO Box 169-300 N Washington, Bainbridge, IN, 46105", "county": "Putnam", "NAME": "North Putnam Community Schools" }, "geometry": { "type": "Point", "coordinates": [ -86.812242, 39.763301299999988 ] } },
{ "type": "Feature", "properties": { "corp_id": "6750", "corp_name": "Cloverdale Community Schools", "typ": "School Corporation", "address": "310 E Logan, Cloverdale, IN, 46120", "county": "Putnam", "NAME": "Cloverdale Community Schools" }, "geometry": { "type": "Point", "coordinates": [ -86.7818523, 39.483443 ] } },
{ "type": "Feature", "properties": { "corp_id": "6755", "corp_name": "Greencastle Community School Corporation", "typ": "School Corporation", "address": "1002 Mill Pond Lane, Greencastle, IN, 46135", "county": "Putnam", "NAME": "Greencastle Community School Corporation" }, "geometry": { "type": "Point", "coordinates": [ -86.8403556, 39.6403188 ] } },
{ "type": "Feature", "properties": { "corp_id": "6795", "corp_name": "Union School Corporation", "typ": "School Corporation", "address": "8707 W US Hwy 36 PO Box 148, Modoc, IN, 47358", "county": "Randolph", "NAME": "Union School Corporation" }, "geometry": { "type": "Point", "coordinates": [ -85.1422848, 40.0453531 ] } },
{ "type": "Feature", "properties": { "corp_id": "6805", "corp_name": "Randolph Southern School Corporation", "typ": "School Corporation", "address": "1 Rebel Dr, Lynn, IN, 47355", "county": "Randolph", "NAME": "Randolph Southern School Corporation" }, "geometry": { "type": "Point", "coordinates": [ -84.981754, 40.0777761 ] } },
{ "type": "Feature", "properties": { "corp_id": "6820", "corp_name": "Monroe Central School Corporation", "typ": "School Corporation", "address": "1918 N CR 1000 W, Parker City, IN, 47368", "county": "Randolph", "NAME": "Monroe Central School Corporation" }, "geometry": { "type": "Point", "coordinates": [ -85.1997667, 40.1789583 ] } },
{ "type": "Feature", "properties": { "corp_id": "6825", "corp_name": "Randolph Central School Corporation", "typ": "School Corporation", "address": "103 N East St, Winchester, IN, 47394", "county": "Randolph", "NAME": "Randolph Central School Corporation" }, "geometry": { "type": "Point", "coordinates": [ -84.9799858, 40.1727455 ] } },
{ "type": "Feature", "properties": { "corp_id": "6835", "corp_name": "Randolph Eastern School Corporation", "typ": "School Corporation", "address": "731 N Plum St, Union City, IN, 47390", "county": "Randolph", "NAME": "Randolph Eastern School Corporation" }, "geometry": { "type": "Point", "coordinates": [ -84.8146277, 40.2055819 ] } },
{ "type": "Feature", "properties": { "corp_id": "6865", "corp_name": "South Ripley Community School Corporation", "typ": "School Corporation", "address": "PO Box 690, Versailles, IN, 47042", "county": "Ripley", "NAME": "South Ripley Community School Corporation" }, "geometry": { "type": "Point", "coordinates": [ -85.3136218, 39.0188511 ] } },
{ "type": "Feature", "properties": { "corp_id": "6895", "corp_name": "Batesville Community School Corporation", "typ": "School Corporation", "address": "PO Box 121, Batesville, IN, 47006", "county": "Ripley", "NAME": "Batesville Community School Corporation" }, "geometry": { "type": "Point", "coordinates": [ -85.2308414, 39.347564899999988 ] } },
{ "type": "Feature", "properties": { "corp_id": "6900", "corp_name": "Jac-Cen-Del Community School Corporation", "typ": "School Corporation", "address": "723 N Buckeye St, Osgood, IN, 47037", "county": "Ripley", "NAME": "Jac-Cen-Del Community School Corporation" }, "geometry": { "type": "Point", "coordinates": [ -85.293838, 39.1357353 ] } },
{ "type": "Feature", "properties": { "corp_id": "6910", "corp_name": "Milan Community Schools", "typ": "School Corporation", "address": "412 E Carr St, Milan, IN, 47031", "county": "Ripley", "NAME": "Milan Community Schools" }, "geometry": { "type": "Point", "coordinates": [ -85.1249073, 39.1204878 ] } },
{ "type": "Feature", "properties": { "corp_id": "6995", "corp_name": "Rush County Schools", "typ": "School Corporation", "address": "330 W 8th St, Rushville, IN, 46173", "county": "Rush", "NAME": "Rush County Schools" }, "geometry": { "type": "Point", "coordinates": [ -85.4487993, 39.6152638 ] } },
{ "type": "Feature", "properties": { "corp_id": "7150", "corp_name": "John Glenn School Corporation", "typ": "School Corporation", "address": "101 John Glenn Dr, Walkerton, IN, 46574", "county": "St Joseph", "NAME": "John Glenn School Corporation" }, "geometry": { "type": "Point", "coordinates": [ -86.4810434, 41.458001 ] } },
{ "type": "Feature", "properties": { "corp_id": "7175", "corp_name": "Penn-Harris-Madison School Corporation", "typ": "School Corporation", "address": "55900 Bittersweet Rd, Mishawaka, IN, 46545", "county": "St Joseph", "NAME": "Penn-Harris-Madison School Corporation" }, "geometry": { "type": "Point", "coordinates": [ -86.1086726, 41.6821092 ] } },
{ "type": "Feature", "properties": { "corp_id": "7200", "corp_name": "School City of Mishawaka", "typ": "School Corporation", "address": "1402 S Main St, Mishawaka, IN, 46544", "county": "St Joseph", "NAME": "Mishawaka School City" }, "geometry": { "type": "Point", "coordinates": [ -86.1793982, 41.6491237 ] } },
{ "type": "Feature", "properties": { "corp_id": "7205", "corp_name": "South Bend Community School Corporation", "typ": "School Corporation", "address": "215 Dr Martin Luther King Jr B, South Bend, IN, 46601", "county": "St Joseph", "NAME": "South Bend Community School Corporation" }, "geometry": { "type": "Point", "coordinates": [ -86.2491653, 41.6744808 ] } },
{ "type": "Feature", "properties": { "corp_id": "7215", "corp_name": "Union-North United School Corporation", "typ": "School Corporation", "address": "22601 Tyler Rd, Lakeville, IN, 46536", "county": "St Joseph", "NAME": "Union-North United School Corporation" }, "geometry": { "type": "Point", "coordinates": [ -86.3048487, 41.477562 ] } },
{ "type": "Feature", "properties": { "corp_id": "7230", "corp_name": "Scott County School District 1", "typ": "School Corporation", "address": "PO Box 9, Austin, IN, 47102", "county": "Scott", "NAME": "Scott County School District 1" }, "geometry": { "type": "Point", "coordinates": [ -85.7769164, 38.7549368 ] } },
{ "type": "Feature", "properties": { "corp_id": "7255", "corp_name": "Scott County School District 2", "typ": "School Corporation", "address": "375 E McClain Ave, Scottsburg, IN, 47170", "county": "Scott", "NAME": "Scott County School District 2" }, "geometry": { "type": "Point", "coordinates": [ -85.7663851, 38.6844525 ] } },
{ "type": "Feature", "properties": { "corp_id": "7285", "corp_name": "Shelby Eastern Schools", "typ": "School Corporation", "address": "2451 N 600 E, Shelbyville, IN, 46176", "county": "Shelby", "NAME": "Shelby Eastern Schools" }, "geometry": { "type": "Point", "coordinates": [ -85.6697994, 39.5616496 ] } },
{ "type": "Feature", "properties": { "corp_id": "7350", "corp_name": "Northwestern Consolidated School Corporation", "typ": "School Corporation", "address": "4920 W 600 N, Fairland, IN, 46126", "county": "Shelby", "NAME": "Northwestern Consolidated School Corporation" }, "geometry": { "type": "Point", "coordinates": [ -85.874304, 39.6107052 ] } },
{ "type": "Feature", "properties": { "corp_id": "7360", "corp_name": "Southwestern Consolidated School Shelby County", "typ": "School Corporation", "address": "3406 W 600 S, Shelbyville, IN, 46176", "county": "Shelby", "NAME": "Southwestern Shelby County Consolidated Schools" }, "geometry": { "type": "Point", "coordinates": [ -85.8458906, 39.4409928 ] } },
{ "type": "Feature", "properties": { "corp_id": "7365", "corp_name": "Shelbyville Central Schools", "typ": "School Corporation", "address": "1121 E State Road 44, Shelbyville, IN, 46176", "county": "Shelby", "NAME": "Shelbyville Central Schools" }, "geometry": { "type": "Point", "coordinates": [ -85.7599292, 39.5196499 ] } },
{ "type": "Feature", "properties": { "corp_id": "7385", "corp_name": "North Spencer County School Corporation", "typ": "School Corporation", "address": "PO Box 316, Lincoln City, IN, 47552", "county": "Spencer", "NAME": "North Spencer County School Corporation" }, "geometry": { "type": "Point", "coordinates": [ -86.9423801, 38.0658202 ] } },
{ "type": "Feature", "properties": { "corp_id": "7445", "corp_name": "South Spencer County School Corporation", "typ": "School Corporation", "address": "321 S 5th Street, Rockport, IN, 47635", "county": "Spencer", "NAME": "South Spencer County School Corporation" }, "geometry": { "type": "Point", "coordinates": [ -87.0511065, 37.8796483 ] } },
{ "type": "Feature", "properties": { "corp_id": "7495", "corp_name": "Oregon-Davis School Corporation", "typ": "School Corporation", "address": "5998 N 750 E, Hamlet, IN, 46532", "county": "Starke", "NAME": "Oregon-Davis School Corporation" }, "geometry": { "type": "Point", "coordinates": [ -86.5528269, 41.38923 ] } },
{ "type": "Feature", "properties": { "corp_id": "7515", "corp_name": "North Judson-San Pierre School Corporation", "typ": "School Corporation", "address": "801 Campbell Dr, North Judson, IN, 46366", "county": "Starke", "NAME": "North Judson-San Pierre School Corporation" }, "geometry": { "type": "Point", "coordinates": [ -86.7857718, 41.2110408 ] } },
{ "type": "Feature", "properties": { "corp_id": "7525", "corp_name": "Knox Community School Corporation", "typ": "School Corporation", "address": "2 Redskin Trl, Knox, IN, 46534", "county": "Starke", "NAME": "Knox Community School Corporation" }, "geometry": { "type": "Point", "coordinates": [ -86.624457, 41.2865936 ] } },
{ "type": "Feature", "properties": { "corp_id": "7605", "corp_name": "Fremont Community Schools", "typ": "School Corporation", "address": "PO Box 665, Fremont, IN, 46737", "county": "Steuben", "NAME": "Fremont Community Schools" }, "geometry": { "type": "Point", "coordinates": [ -84.9505398, 41.7394424 ] } },
{ "type": "Feature", "properties": { "corp_id": "7610", "corp_name": "Hamilton Community Schools", "typ": "School Corporation", "address": "903 S Wayne St, Hamilton, IN, 46742", "county": "Steuben", "NAME": "Hamilton Community Schools" }, "geometry": { "type": "Point", "coordinates": [ -84.919959, 41.522286 ] } },
{ "type": "Feature", "properties": { "corp_id": "7615", "corp_name": "Metropolitan School District Steuben County", "typ": "School Corporation", "address": "400 S Martha St, Angola, IN, 46703", "county": "Steuben", "NAME": "Steuben County Metropolitan School District" }, "geometry": { "type": "Point", "coordinates": [ -84.9984731, 41.6322289 ] } },
{ "type": "Feature", "properties": { "corp_id": "7645", "corp_name": "Northeast School Corporation", "typ": "School Corporation", "address": "PO Box 493, Hymera, IN, 47855", "county": "Sullivan", "NAME": "Northeast School Corporation" }, "geometry": { "type": "Point", "coordinates": [ -87.3957238, 39.1837876 ] } },
{ "type": "Feature", "properties": { "corp_id": "7715", "corp_name": "Southwest School Corporation", "typ": "School Corporation", "address": "PO Box 510, Sullivan, IN, 47882", "county": "Sullivan", "NAME": "Southwest School Corporation" }, "geometry": { "type": "Point", "coordinates": [ -87.4207518, 39.0843122 ] } },
{ "type": "Feature", "properties": { "corp_id": "7775", "corp_name": "Switzerland County School Corporation", "typ": "School Corporation", "address": "1040 W Main St, Vevay, IN, 47043", "county": "Switzerland", "NAME": "Switzerland County School Corporation" }, "geometry": { "type": "Point", "coordinates": [ -85.0844019, 38.7387551 ] } },
{ "type": "Feature", "properties": { "corp_id": "7855", "corp_name": "Lafayette School Corporation", "typ": "School Corporation", "address": "2300 Cason St, Lafayette, IN, 47904", "county": "Tippecanoe", "NAME": "Lafayette School Corporation" }, "geometry": { "type": "Point", "coordinates": [ -86.8712844, 40.4222831 ] } },
{ "type": "Feature", "properties": { "corp_id": "7865", "corp_name": "Tippecanoe School Corporation", "typ": "School Corporation", "address": "21 Elston Rd, Lafayette, IN, 47909", "county": "Tippecanoe", "NAME": "Tippecanoe School Corporation" }, "geometry": { "type": "Point", "coordinates": [ -86.90429, 40.392333099999988 ] } },
{ "type": "Feature", "properties": { "corp_id": "7875", "corp_name": "West Lafayette Community School Corporation", "typ": "School Corporation", "address": "1130 N Salisbury, West Lafayette, IN, 47906", "county": "Tippecanoe", "NAME": "West Lafayette Community School Corporation" }, "geometry": { "type": "Point", "coordinates": [ -86.9055935, 40.4370751 ] } },
{ "type": "Feature", "properties": { "corp_id": "7935", "corp_name": "Tri-Central Community Schools", "typ": "School Corporation", "address": "4774 N 200 W, Sharpsville, IN, 46068", "county": "Tipton", "NAME": "Tipton County Northern Community School Corporation" }, "geometry": { "type": "Point", "coordinates": [ -86.0536605, 40.375654399999988 ] } },
{ "type": "Feature", "properties": { "corp_id": "7945", "corp_name": "Tipton Community School Corporation", "typ": "School Corporation", "address": "1051 S Main St, Tipton, IN, 46072", "county": "Tipton", "NAME": "Tipton Community School Corporation" }, "geometry": { "type": "Point", "coordinates": [ -86.0399007, 40.2722284 ] } },
{ "type": "Feature", "properties": { "corp_id": "7950", "corp_name": "Union County/Clg Corner Joint School District", "typ": "School Corporation", "address": "107 S Layman St, Liberty, IN, 47353", "county": "Union", "NAME": "Union County-College Corner Joint School District" }, "geometry": { "type": "Point", "coordinates": [ -84.9171539, 39.6367448 ] } },
{ "type": "Feature", "properties": { "corp_id": "7995", "corp_name": "Evansville Vanderburgh School Corporation", "typ": "School Corporation", "address": "951 Walnut St, Evansville, IN, 47713", "county": "Vanderburgh", "NAME": "Evansville-Vanderburgh School Corporation" }, "geometry": { "type": "Point", "coordinates": [ -87.5635528, 37.9725911 ] } },
{ "type": "Feature", "properties": { "corp_id": "8010", "corp_name": "North Vermillion Community School Corporation", "typ": "School Corporation", "address": "5551 N Falcon Dr, Cayuga, IN, 47928", "county": "Vermillion", "NAME": "North Vermillion Community School Corporation" }, "geometry": { "type": "Point", "coordinates": [ -87.4519935, 39.9669621 ] } },
{ "type": "Feature", "properties": { "corp_id": "8020", "corp_name": "South Vermillion Community School Corporation", "typ": "School Corporation", "address": "PO Box 387, Clinton, IN, 47842", "county": "Vermillion", "NAME": "South Vermillion Community School Corporation" }, "geometry": { "type": "Point", "coordinates": [ -87.4405786, 39.7268394 ] } },
{ "type": "Feature", "properties": { "corp_id": "8030", "corp_name": "Vigo County School Corporation", "typ": "School Corporation", "address": "PO Box 3703, Terre Haute, IN, 47803", "county": "Vigo", "NAME": "Vigo County School Corporation" }, "geometry": { "type": "Point", "coordinates": [ -87.4207518, 39.4165382 ] } },
{ "type": "Feature", "properties": { "corp_id": "8045", "corp_name": "Manchester Community Schools", "typ": "School Corporation", "address": "404 W Ninth St, N Manchester, IN, 46962", "county": "Wabash", "NAME": "Manchester Community Schools" }, "geometry": { "type": "Point", "coordinates": [ -85.775899900000013, 41.009895 ] } },
{ "type": "Feature", "properties": { "corp_id": "8050", "corp_name": "Metropolitan School District Wabash County Schools", "typ": "School Corporation", "address": "204 N 300 W, Wabash, IN, 46992", "county": "Wabash", "NAME": "Wabash County Schools Metropolitan School District" }, "geometry": { "type": "Point", "coordinates": [ -85.8492946, 40.8278251 ] } },
{ "type": "Feature", "properties": { "corp_id": "8060", "corp_name": "Wabash City Schools", "typ": "School Corporation", "address": "189 W Market St, Wabash, IN, 46992", "county": "Wabash", "NAME": "Wabash City Schools" }, "geometry": { "type": "Point", "coordinates": [ -85.823625, 40.796447 ] } },
{ "type": "Feature", "properties": { "corp_id": "8115", "corp_name": "Metropolitan School District Warren County", "typ": "School Corporation", "address": "101 N Monroe St, Williamsport, IN, 47993", "county": "Warren", "NAME": "Warren County Metropolitan School District" }, "geometry": { "type": "Point", "coordinates": [ -87.2937518, 40.2872342 ] } },
{ "type": "Feature", "properties": { "corp_id": "8130", "corp_name": "Warrick County School Corporation", "typ": "School Corporation", "address": "PO Box 809, Boonville, IN, 47601", "county": "Warrick", "NAME": "Warrick County School Corporation" }, "geometry": { "type": "Point", "coordinates": [ -87.2618328, 38.0736703 ] } },
{ "type": "Feature", "properties": { "corp_id": "8205", "corp_name": "Salem Community Schools", "typ": "School Corporation", "address": "500 N Harrison St, Salem, IN, 47167", "county": "Washington", "NAME": "Salem Community Schools" }, "geometry": { "type": "Point", "coordinates": [ -86.1054457, 38.6140167 ] } },
{ "type": "Feature", "properties": { "corp_id": "8215", "corp_name": "East Washington School Corporation", "typ": "School Corporation", "address": "1050 N Eastern School Rd, Pekin, IN, 47165", "county": "Washington", "NAME": "East Washington School Corporation" }, "geometry": { "type": "Point", "coordinates": [ -86.0014731, 38.5146014 ] } },
{ "type": "Feature", "properties": { "corp_id": "8220", "corp_name": "West Washington School Corporation", "typ": "School Corporation", "address": "8026 W Batt Rd, Campbellsburg, IN, 47108", "county": "Washington", "NAME": "West Washington School Corporation" }, "geometry": { "type": "Point", "coordinates": [ -86.2341519, 38.5835549 ] } },
{ "type": "Feature", "properties": { "corp_id": "8305", "corp_name": "Nettle Creek School Corporation", "typ": "School Corporation", "address": "297 E Northmarket St, Hagerstown, IN, 47346", "county": "Wayne", "NAME": "Nettle Creek School Corporation" }, "geometry": { "type": "Point", "coordinates": [ -85.1583343, 39.912322499999988 ] } },
{ "type": "Feature", "properties": { "corp_id": "8355", "corp_name": "Western Wayne Schools", "typ": "School Corporation", "address": "519 Queen St., Pershing, IN, 47370", "county": "Wayne", "NAME": "Western Wayne Schools" }, "geometry": { "type": "Point", "coordinates": [ -85.1373986, 39.8143106 ] } },
{ "type": "Feature", "properties": { "corp_id": "8360", "corp_name": "Centerville-Abington Community Schools", "typ": "School Corporation", "address": "115 W South St, Centerville, IN, 47330", "county": "Wayne", "NAME": "Centerville-Abington Community Schools" }, "geometry": { "type": "Point", "coordinates": [ -84.9977135, 39.8144717 ] } },
{ "type": "Feature", "properties": { "corp_id": "8375", "corp_name": "Northeastern Wayne Schools", "typ": "School Corporation", "address": "PO Box 406, Fountain City, IN, 47341", "county": "Wayne", "NAME": "Northeastern Wayne Schools" }, "geometry": { "type": "Point", "coordinates": [ -84.9193082, 39.9317436 ] } },
{ "type": "Feature", "properties": { "corp_id": "8385", "corp_name": "Richmond Community Schools", "typ": "School Corporation", "address": "300 Hub Etchison Parkway, Richmond, IN, 47374", "county": "Wayne", "NAME": "Richmond Community School Corporation" }, "geometry": { "type": "Point", "coordinates": [ -84.9020762, 39.8244866 ] } },
{ "type": "Feature", "properties": { "corp_id": "8425", "corp_name": "Southern Wells Community Schools", "typ": "School Corporation", "address": "9120 S 300 W, Poneto, IN, 46781", "county": "Wells", "NAME": "Southern Wells Community Schools" }, "geometry": { "type": "Point", "coordinates": [ -85.2799676, 40.6082732 ] } },
{ "type": "Feature", "properties": { "corp_id": "8435", "corp_name": "Norwell Community Schools", "typ": "School Corporation", "address": "312 N Jefferson St, Ossian, IN, 46777", "county": "Wells", "NAME": "Northern Wells Community Schools" }, "geometry": { "type": "Point", "coordinates": [ -85.16588, 40.8827459 ] } },
{ "type": "Feature", "properties": { "corp_id": "8445", "corp_name": "Metropolitan School District Bluffton-Harrison", "typ": "School Corporation", "address": "805 E Harrison St, Bluffton, IN, 46714", "county": "Wells", "NAME": "Bluffton-Harrison Metropolitan School District" }, "geometry": { "type": "Point", "coordinates": [ -85.1271907, 40.7145634 ] } },
{ "type": "Feature", "properties": { "corp_id": "8515", "corp_name": "North White School Corporation", "typ": "School Corporation", "address": "402 E Broadway St, Monon, IN, 47959", "county": "White", "NAME": "North White School Corporation" }, "geometry": { "type": "Point", "coordinates": [ -86.8748551, 40.8687365 ] } },
{ "type": "Feature", "properties": { "corp_id": "8525", "corp_name": "Frontier School Corporation", "typ": "School Corporation", "address": "PO Box 809, Chalmers, IN, 47929", "county": "White", "NAME": "Frontier School Corporation" }, "geometry": { "type": "Point", "coordinates": [ -86.8621827, 40.6327966 ] } },
{ "type": "Feature", "properties": { "corp_id": "8535", "corp_name": "Tri-County School Corporation", "typ": "School Corporation", "address": "105 N 2nd St, Wolcott, IN, 47995", "county": "White", "NAME": "Tri-County School Corporation" }, "geometry": { "type": "Point", "coordinates": [ -87.042301, 40.7590605 ] } },
{ "type": "Feature", "properties": { "corp_id": "8565", "corp_name": "Twin Lakes School Corporation", "typ": "School Corporation", "address": "565 S Main St, Monticello, IN, 47960", "county": "White", "NAME": "Twin Lakes School Corporation" }, "geometry": { "type": "Point", "coordinates": [ -86.7614859, 40.7379158 ] } },
{ "type": "Feature", "properties": { "corp_id": "8625", "corp_name": "Smith-Green Community Schools", "typ": "School Corporation", "address": "222 W Tulley St, Churubusco, IN, 46723", "county": "Whitley", "NAME": "Smith-Green Community Schools" }, "geometry": { "type": "Point", "coordinates": [ -85.3230721, 41.231037099999988 ] } },
{ "type": "Feature", "properties": { "corp_id": "8665", "corp_name": "Whitley County Consolidated Schools", "typ": "School Corporation", "address": "107 N Walnut St, Columbia City, IN, 46725", "county": "Whitley", "NAME": "Whitley County Consolidated Schools" }, "geometry": { "type": "Point", "coordinates": [ -85.4934534, 41.1580538 ] } },
{ "type": "Feature", "properties": { "corp_id": "9022", "corp_name": "Paramount School of Excellence Lafayette", "typ": "School Corporation", "address": "1904 Elmwood Ave, Lafayette, IN, 47904", "county": null, "NAME": "Lafayette School Corporation" }, "geometry": { "type": "Point", "coordinates": [ -86.8761052, 40.427751 ] } },
{ "type": "Feature", "properties": { "corp_id": "0015", "corp_name": "Adams Central Community Schools", "typ": "School Corporation", "address": "222 W Washington St, Monroe, IN, 46772-9436", "county": "Adams", "NAME": "Adams Central Community Schools" }, "geometry": { "type": "Point", "coordinates": [ -84.9193082, 40.746062 ] } },
{ "type": "Feature", "properties": { "corp_id": "0025", "corp_name": "North Adams Community Schools", "typ": "School Corporation", "address": "625 Stadium Dr, Decatur, IN, 46733", "county": "Adams", "NAME": "North Adams Community Schools" }, "geometry": { "type": "Point", "coordinates": [ -84.9193082, 40.8672374 ] } },
{ "type": "Feature", "properties": { "corp_id": "0035", "corp_name": "South Adams Schools", "typ": "School Corporation", "address": "1075 Starfire Way, Berne, IN, 46711", "county": "Adams", "NAME": "South Adams Schools" }, "geometry": { "type": "Point", "coordinates": [ -84.9193082, 40.6246316 ] } },
{ "type": "Feature", "properties": { "corp_id": "0125", "corp_name": "Metropolitan School District Southwest Allen County Schools", "typ": "School Corporation", "address": "4824 Homestead Rd, Fort Wayne, IN, 46814", "county": "Allen", "NAME": "Southwest Allen County Metropolitan School District" }, "geometry": { "type": "Point", "coordinates": [ -85.2881248, 41.0387344 ] } },
{ "type": "Feature", "properties": { "corp_id": "0225", "corp_name": "Northwest Allen County Schools", "typ": "School Corporation", "address": "13119 Coldwater Rd, Fort Wayne, IN, 46845", "county": "Allen", "NAME": "Northwest Allen County Schools" }, "geometry": { "type": "Point", "coordinates": [ -85.1365144, 41.2044412 ] } },
{ "type": "Feature", "properties": { "corp_id": "0235", "corp_name": "Fort Wayne Community Schools", "typ": "School Corporation", "address": "1200 S Clinton St, Fort Wayne, IN, 46802", "county": "Allen", "NAME": "Fort Wayne Community Schools" }, "geometry": { "type": "Point", "coordinates": [ -85.0649071, 41.1352268 ] } },
{ "type": "Feature", "properties": { "corp_id": "0255", "corp_name": "East Allen County Schools", "typ": "School Corporation", "address": "1240 SR 930 E, New Haven, IN, 46774", "county": "Allen", "NAME": "East Allen County Schools" }, "geometry": { "type": "Point", "coordinates": [ -84.8984775, 41.0476016 ] } },
{ "type": "Feature", "properties": { "corp_id": "0365", "corp_name": "Bartholomew Consolidated School Corporation", "typ": "School Corporation", "address": "1200 Central Ave, Columbus, IN, 47201", "county": "Bartholomew", "NAME": "Bartholomew County School Corporation" }, "geometry": { "type": "Point", "coordinates": [ -85.9048034, 39.2111108 ] } },
{ "type": "Feature", "properties": { "corp_id": "0370", "corp_name": "Flat Rock-Hawcreek School Corporation", "typ": "School Corporation", "address": "9423 N SR 9, Hope, IN, 47246", "county": "Bartholomew", "NAME": "Flat Rock-Hawcreek School Corporation" }, "geometry": { "type": "Point", "coordinates": [ -85.78716630000001, 39.3068524 ] } },
{ "type": "Feature", "properties": { "corp_id": "0395", "corp_name": "Benton Community School Corporation", "typ": "School Corporation", "address": "PO Box 512, Fowler, IN, 47944", "county": "Benton", "NAME": "Benton Community School Corporation" }, "geometry": { "type": "Point", "coordinates": [ -87.2618328, 40.5617189 ] } },
{ "type": "Feature", "properties": { "corp_id": "0515", "corp_name": "Blackford County Schools", "typ": "School Corporation", "address": "0668 W 200 S, Hartford City, IN, 47348", "county": "Blackford", "NAME": "Blackford County Schools" }, "geometry": { "type": "Point", "coordinates": [ -85.3136218, 40.4992784 ] } },
{ "type": "Feature", "properties": { "corp_id": "0615", "corp_name": "Western Boone County Community School District", "typ": "School Corporation", "address": "1201 N SR 75, Thorntown, IN, 46071", "county": "Boone", "NAME": "Western Boone County Community School Corporation" }, "geometry": { "type": "Point", "coordinates": [ -86.6207943, 40.0551854 ] } },
{ "type": "Feature", "properties": { "corp_id": "0630", "corp_name": "Zionsville Community Schools", "typ": "School Corporation", "address": "900 Mulberry St, Zionsville, IN, 46077", "county": "Boone", "NAME": "Zionsville Community Schools" }, "geometry": { "type": "Point", "coordinates": [ -86.2767995, 39.9831886 ] } },
{ "type": "Feature", "properties": { "corp_id": "0665", "corp_name": "Lebanon Community School Corporation", "typ": "School Corporation", "address": "1810 N Grant St, Lebanon, IN, 46052", "county": "Boone", "NAME": "Lebanon Community School Corporation" }, "geometry": { "type": "Point", "coordinates": [ -86.4592091, 40.0503732 ] } },
{ "type": "Feature", "properties": { "corp_id": "0670", "corp_name": "Brown County School Corporation", "typ": "School Corporation", "address": "357 E Main St, Nashville, IN, 47448", "county": "Brown", "NAME": "Brown County County School Corporation" }, "geometry": { "type": "Point", "coordinates": [ -86.175175900000013, 39.1749729 ] } },
{ "type": "Feature", "properties": { "corp_id": "0750", "corp_name": "Carroll Consolidated School Corporation", "typ": "School Corporation", "address": "2 S 3rd St, Flora, IN, 46929", "county": "Carroll", "NAME": "Carroll Consolidated School Corporation" }, "geometry": { "type": "Point", "coordinates": [ -86.4794359, 40.5202693 ] } },
{ "type": "Feature", "properties": { "corp_id": "0755", "corp_name": "Delphi Community School Corporation", "typ": "School Corporation", "address": "501 Armory Rd, Delphi, IN, 46923", "county": "Carroll", "NAME": "Delphi Community School Corporation" }, "geometry": { "type": "Point", "coordinates": [ -86.5400674, 40.6236211 ] } },
{ "type": "Feature", "properties": { "corp_id": "0775", "corp_name": "Pioneer Regional School Corporation", "typ": "School Corporation", "address": "PO Box 577, Royal Center, IN, 46978", "county": "Cass", "NAME": "Pioneer Regional School Corporation" }, "geometry": { "type": "Point", "coordinates": [ -86.4592091, 40.864111 ] } },
{ "type": "Feature", "properties": { "corp_id": "0815", "corp_name": "Lewis Cass Schools", "typ": "School Corporation", "address": "100 S Main Street, Walton, IN, 46994", "county": "Cass", "NAME": "Lewis Cass Schools" }, "geometry": { "type": "Point", "coordinates": [ -86.2514139, 40.6627281 ] } },
{ "type": "Feature", "properties": { "corp_id": "0875", "corp_name": "Logansport Community School Corporation", "typ": "School Corporation", "address": "2829 George St, Logansport, IN, 46947", "county": "Cass", "NAME": "Logansport Community School Corporation" }, "geometry": { "type": "Point", "coordinates": [ -86.3295554, 40.7563474 ] } },
{ "type": "Feature", "properties": { "corp_id": "0935", "corp_name": "Borden-Henryville School Corporation", "typ": "School Corporation", "address": "14312 Railroad St., Memphis, IN, 47143", "county": "Clark", "NAME": "Borden-Henryville School Corp" }, "geometry": { "type": "Point", "coordinates": [ -85.7608169, 38.4872222 ] } },
{ "type": "Feature", "properties": { "corp_id": "0945", "corp_name": "Silver Creek School Corporation", "typ": "School Corporation", "address": "601 Renz Ave, Sellersburg, IN, 47172", "county": "Clark", "NAME": "Silver Creek School Corporation" }, "geometry": { "type": "Point", "coordinates": [ -85.7564107, 38.397887 ] } },
{ "type": "Feature", "properties": { "corp_id": "1000", "corp_name": "Clarksville Community School Corporation", "typ": "School Corporation", "address": "502 Little League Blvd, Clarksville, IN, 47129", "county": "Clark", "NAME": "Clarksville Community School Corporation" }, "geometry": { "type": "Point", "coordinates": [ -85.7641013, 38.3008943 ] } }
]
}
